T(h:m:s),FT(h:m:s),T(Sec),T(ms),UF(Hz),Sats,Date,Time,Lat,Lon,Alt(Ft),Alt(M),GndSpd(M/S),Head(Deg),PDOP,intT(C),intT(F),extT(C),extT(F),msTemp(C),msTemp(F),msPress(PSI),msPress(ATM),msAlt(ft),msAlt(M),VertVel(Ft/S),VertVel(M/S),mag x,mag y,mag z,accel x,accel y,accel z,gyro x,gyro y,gyro z,orien yaw,orien pitch,orien roll,xbee message
No Data
0:00:20,NA:NA:NA,20.1,20074,0.0,0,8/2/2020,-5:0:21,0.000000,0.000000,0.02,0.01,0.000,0.00,9999,16.88,62.38,13.61,56.50,16.56,61.81,13.41,0.91,2548.22,776.70,0.58,0.18,44.56,43.06,-27.06,0.38,-0.13,9.27,0.00,-0.00,0.00,0.00,0.00,2.44,
0:00:21,NA:NA:NA,21.9,21865,0.6,0,8/2/2020,-5:0:22,0.000000,0.000000,0.00,0.00,0.000,0.00,9999,16.83,62.30,13.55,56.38,16.54,61.77,13.41,0.91,2546.75,776.25,-0.82,-0.25,44.56,43.38,-27.50,0.33,-0.08,9.27,0.00,-0.00,0.00,0.00,0.00,2.44,
0:00:22,NA:NA:NA,22.9,22865,1.0,0,8/2/2020,-5:0:23,0.000000,0.000000,0.00,0.00,0.000,0.00,9999,16.86,62.34,13.61,56.50,16.53,61.75,13.41,0.91,2545.86,775.98,-0.89,-0.27,43.75,42.25,-27.06,0.34,-0.10,9.27,-0.00,-0.00,-0.00,0.00,0.00,2.44,
0:00:23,NA:NA:NA,23.9,23865,1.0,0,8/2/2020,-5:0:24,0.000000,0.000000,0.00,0.00,0.000,0.00,9999,16.77,62.18,13.70,56.66,16.52,61.74,13.41,0.91,2545.27,775.80,-0.59,-0.18,44.56,42.69,-26.38,0.30,-0.13,9.30,-0.00,0.00,0.00,0.00,0.00,2.44,
0:00:24,NA:NA:NA,24.9,24865,1.0,0,8/2/2020,-5:0:25,0.000000,0.000000,0.00,0.00,0.000,0.00,9999,16.75,62.14,13.97,57.14,16.52,61.74,13.41,0.91,2544.68,775.62,-0.59,-0.18,44.88,43.06,-27.06,0.32,-0.12,9.28,0.00,0.00,-0.00,0.00,0.00,2.44,
0:00:25,NA:NA:NA,25.9,25865,1.0,0,8/2/2020,-5:0:26,0.000000,0.000000,0.00,0.00,0.000,0.00,9999,16.77,62.18,13.88,56.98,16.52,61.74,13.41,0.91,2545.57,775.89,0.88,0.27,44.56,42.25,-26.75,0.33,-0.11,9.29,0.00,0.00,0.00,0.00,0.00,2.44,
0:00:26,NA:NA:NA,26.9,26865,1.0,0,8/2/2020,-5:0:27,0.000000,0.000000,0.00,0.00,0.000,0.00,9999,16.72,62.10,13.99,57.18,16.51,61.72,13.41,0.91,2544.68,775.62,-0.88,-0.27,44.19,44.88,-27.06,0.31,-0.11,9.30,-0.00,-0.00,0.00,0.00,0.00,2.44,
0:00:27,NA:NA:NA,27.9,27865,1.0,0,8/2/2020,-5:0:28,0.000000,0.000000,0.00,0.00,0.000,0.00,9999,16.61,61.91,14.01,57.22,16.48,61.66,13.41,0.91,2544.68,775.62,0.00,0.00,45.25,44.88,-27.50,0.32,-0.11,9.30,0.00,-0.00,-0.00,0.00,0.00,2.50,
0:00:28,NA:NA:NA,28.9,28865,1.0,0,8/2/2020,-5:0:29,0.000000,0.000000,0.00,0.00,0.000,0.00,9999,16.53,61.75,13.95,57.10,16.44,61.59,13.41,0.91,2545.57,775.89,0.88,0.27,44.88,45.25,-27.06,0.33,-0.11,9.28,0.00,0.00,0.00,0.00,0.00,2.50,
0:00:29,NA:NA:NA,29.9,29865,1.0,0,8/2/2020,-5:0:30,0.000000,0.000000,0.00,0.00,0.000,0.00,9999,16.37,61.47,14.01,57.22,16.42,61.56,13.41,0.91,2545.86,775.98,0.29,0.09,46.06,44.88,-26.75,0.31,-0.13,9.30,0.00,0.00,0.00,0.00,0.00,2.50,
0:00:30,NA:NA:NA,30.9,30865,1.0,0,8/2/2020,-5:0:31,0.000000,0.000000,0.00,0.00,0.000,0.00,9999,16.31,61.35,14.12,57.42,16.40,61.52,13.41,0.91,2544.68,775.62,-1.18,-0.36,45.25,45.25,-26.75,0.31,-0.12,9.27,-0.00,0.00,0.00,0.00,0.00,2.50,
0:00:31,NA:NA:NA,31.9,31865,1.0,0,8/2/2020,-5:0:32,0.000000,0.000000,0.00,0.00,0.000,0.00,9999,16.29,61.31,13.97,57.14,16.33,61.39,13.41,0.91,2544.98,775.71,0.30,0.09,44.56,45.56,-27.06,0.30,-0.14,9.26,-0.00,0.00,0.00,0.00,0.00,2.50,
0:00:32,NA:NA:NA,32.9,32865,1.0,0,8/2/2020,-5:0:33,0.000000,0.000000,0.00,0.00,0.000,0.00,9999,16.22,61.20,14.01,57.22,16.26,61.27,13.41,0.91,2546.16,776.07,1.18,0.36,45.25,45.25,-25.25,0.33,-0.15,9.31,0.00,-0.00,0.00,0.00,0.00,2.50,
0:00:33,NA:NA:NA,33.9,33865,1.0,0,8/2/2020,-5:0:34,0.000000,0.000000,0.00,0.00,0.000,0.00,9999,16.18,61.12,14.04,57.26,16.21,61.18,13.41,0.91,2544.68,775.62,-1.47,-0.45,46.06,44.50,-26.69,0.27,-0.15,9.28,-0.00,-0.00,0.00,0.00,0.00,2.50,
0:00:34,NA:NA:NA,34.9,34865,1.0,0,8/2/2020,-5:0:35,0.000000,0.000000,0.00,0.00,0.000,0.00,9999,16.15,61.08,13.92,57.06,16.17,61.11,13.41,0.91,2544.39,775.53,-0.29,-0.09,45.25,45.56,-25.88,0.30,-0.11,9.16,-0.00,0.00,0.00,0.00,0.00,2.44,
0:00:35,NA:NA:NA,35.9,35865,1.0,0,8/2/2020,-5:0:36,0.000000,0.000000,0.00,0.00,0.000,0.00,9999,15.91,60.64,13.86,56.94,16.12,61.02,13.41,0.91,2543.80,775.35,-0.59,-0.18,44.88,44.88,-25.19,0.24,-0.16,9.27,-0.00,0.01,0.00,0.00,0.38,2.19,
0:00:36,NA:NA:NA,36.9,36865,1.0,0,8/2/2020,-5:0:37,0.000000,0.000000,0.00,0.00,0.000,0.00,9999,15.76,60.36,13.84,56.90,16.09,60.96,13.41,0.91,2545.27,775.80,1.47,0.45,44.56,45.25,-26.25,0.32,-0.21,9.26,-0.00,-0.00,0.00,0.00,0.38,2.19,
0:00:37,NA:NA:NA,37.9,37865,1.0,0,8/2/2020,-5:0:38,0.000000,0.000000,0.00,0.00,0.000,0.00,9999,15.65,60.17,13.88,56.98,16.06,60.91,13.41,0.91,2544.09,775.44,-1.18,-0.36,27.06,28.25,-15.56,0.28,-0.15,9.31,0.00,0.00,0.00,0.00,0.56,2.06,
0:00:38,NA:NA:NA,38.9,38865,1.0,0,8/2/2020,-5:0:39,0.000000,0.000000,0.00,0.00,0.000,0.00,9999,15.58,60.05,13.92,57.06,16.05,60.89,13.41,0.91,2543.51,775.26,-0.59,-0.18,28.19,28.00,-16.38,0.31,-0.14,9.26,0.00,0.00,0.00,0.00,0.62,2.00,
0:00:39,NA:NA:NA,39.9,39865,1.0,0,8/2/2020,-5:0:40,0.000000,0.000000,0.00,0.00,0.000,0.00,9999,15.63,60.13,13.90,57.02,16.04,60.87,13.41,0.91,2542.92,775.08,-0.59,-0.18,27.88,28.00,-16.00,0.28,-0.18,9.27,0.00,0.00,0.00,0.00,0.62,2.00,
0:00:40,NA:NA:NA,40.9,40866,1.0,0,8/2/2020,-5:0:41,0.000000,0.000000,0.00,0.00,0.000,0.00,9999,15.67,60.21,13.84,56.90,16.01,60.82,13.41,0.91,2544.68,775.62,1.76,0.54,26.69,28.00,-15.25,0.28,-0.18,9.30,-0.00,0.00,0.00,0.00,0.62,2.00,
0:00:41,NA:NA:NA,41.9,41866,1.0,0,8/2/2020,-5:0:42,0.000000,0.000000,0.00,0.00,0.000,0.00,9999,15.74,60.32,13.68,56.62,15.98,60.76,13.41,0.91,2544.39,775.53,-0.29,-0.09,26.38,28.00,-15.56,0.28,-0.16,9.31,0.00,0.00,-0.00,0.00,0.62,2.00,
0:00:42,NA:NA:NA,42.9,42866,1.0,0,8/2/2020,-5:0:43,0.000000,0.000000,0.00,0.00,0.000,0.00,9999,15.82,60.48,13.66,56.58,15.98,60.76,13.41,0.91,2544.98,775.71,0.59,0.18,26.38,27.56,-16.00,0.29,-0.17,9.31,0.00,0.00,0.00,0.00,0.62,2.00,
0:00:43,NA:NA:NA,43.9,43866,1.0,0,8/2/2020,-5:0:44,0.000000,0.000000,0.00,0.00,0.000,0.00,9999,15.80,60.44,13.70,56.66,15.98,60.76,13.41,0.91,2543.51,775.26,-1.47,-0.45,27.50,28.00,-15.56,0.27,-0.15,9.32,0.00,0.00,0.00,0.00,0.62,2.00,
0:00:44,NA:NA:NA,44.9,44872,1.0,0,8/2/2020,-5:0:45,0.000000,0.000000,0.00,0.00,0.000,0.00,9999,15.76,60.36,13.84,56.90,15.98,60.76,13.41,0.91,2543.21,775.17,-0.29,-0.09,27.06,28.69,-15.56,0.28,-0.17,9.30,0.00,0.00,0.00,0.00,0.62,2.00,
0:00:45,NA:NA:NA,45.9,45872,1.0,0,8/8/2020,10:21:48,0.000000,0.000000,0.00,0.00,0.000,0.00,9999,15.74,60.32,13.81,56.86,15.95,60.71,13.41,0.91,2543.80,775.35,0.59,0.18,26.38,28.25,-15.25,0.27,-0.18,9.28,0.00,-0.00,-0.00,0.00,0.62,2.00,
0:00:47,NA:NA:NA,47.4,47377,0.7,0,8/8/2020,10:21:49,0.000000,0.000000,0.00,0.00,0.000,0.00,9999,15.76,60.36,13.90,57.02,15.92,60.66,13.41,0.91,2544.98,775.71,0.78,0.24,27.75,28.25,-14.88,0.28,-0.16,9.29,0.00,-0.00,0.00,0.00,0.62,2.00,
0:00:48,NA:NA:NA,48.4,48377,1.0,0,8/8/2020,10:21:50,0.000000,0.000000,0.00,0.00,0.000,0.00,9999,15.52,59.93,13.99,57.18,15.89,60.60,13.41,0.91,2545.27,775.80,0.29,0.09,26.38,28.25,-14.88,0.29,-0.16,9.27,-0.00,0.00,0.00,0.00,0.62,2.00,
0:00:49,NA:NA:NA,49.4,49378,1.0,0,8/8/2020,10:21:51,0.000000,0.000000,0.00,0.00,0.000,0.00,9999,15.43,59.77,13.99,57.18,15.82,60.48,13.41,0.91,2545.27,775.80,0.00,0.00,27.38,29.00,-16.00,0.25,-0.20,9.26,-0.00,0.00,0.00,0.00,0.62,2.00,
0:00:50,NA:NA:NA,50.4,50378,1.0,0,8/8/2020,10:21:52,0.000000,0.000000,0.00,0.00,0.000,0.00,9999,15.41,59.73,13.88,56.98,15.78,60.40,13.41,0.91,2543.21,775.17,-2.06,-0.63,27.38,28.00,-14.50,0.26,-0.18,9.27,0.00,0.00,-0.00,0.00,0.62,2.00,
0:00:51,NA:NA:NA,51.4,51378,1.0,0,8/8/2020,10:21:53,0.000000,0.000000,0.00,0.00,0.000,0.00,9999,15.52,59.93,13.79,56.82,15.76,60.37,13.41,0.91,2544.39,775.53,1.18,0.36,26.38,28.25,-15.19,0.24,-0.18,9.27,0.00,-0.01,-0.00,0.00,0.62,2.00,
0:00:52,NA:NA:NA,52.4,52378,1.0,0,8/8/2020,10:21:54,0.000000,0.000000,0.00,0.00,0.000,0.00,9999,15.43,59.77,13.68,56.62,15.69,60.24,13.41,0.91,2545.27,775.80,0.88,0.27,27.06,28.25,-16.00,0.27,-0.19,9.31,0.00,-0.00,0.00,0.00,0.62,2.00,
0:00:53,NA:NA:NA,53.4,53378,1.0,0,8/8/2020,10:21:55,0.000000,0.000000,0.00,0.00,0.000,0.00,9999,15.36,59.65,13.55,56.38,15.67,60.21,13.41,0.91,2544.68,775.62,-0.59,-0.18,26.69,28.25,-15.56,0.27,-0.19,9.27,0.00,-0.00,0.00,0.00,0.62,2.00,
0:00:54,NA:NA:NA,54.4,54378,1.0,0,8/8/2020,10:21:56,0.000000,0.000000,0.00,0.00,0.000,0.00,9999,15.41,59.73,13.55,56.38,15.66,60.19,13.41,0.91,2543.21,775.17,-1.47,-0.45,28.19,28.56,-16.25,0.28,-0.19,9.28,-0.00,0.00,0.00,0.00,0.62,2.00,
0:00:55,NA:NA:NA,55.4,55378,1.0,0,8/8/2020,10:21:57,0.000000,0.000000,0.00,0.00,0.000,0.00,9999,15.38,59.69,13.52,56.34,15.63,60.13,13.41,0.91,2542.92,775.08,-0.30,-0.09,27.38,27.56,-15.56,0.22,-0.17,9.28,0.00,0.00,0.00,0.00,0.62,2.00,
0:00:56,NA:NA:NA,56.4,56378,1.0,0,8/8/2020,10:21:58,0.000000,0.000000,0.00,0.00,0.000,0.00,9999,15.38,59.69,13.52,56.34,15.61,60.10,13.41,0.91,2544.09,775.44,1.18,0.36,25.56,27.56,-15.19,0.22,-0.23,9.30,-0.00,0.00,0.00,0.00,0.69,2.00,
0:00:57,NA:NA:NA,57.4,57378,1.0,0,8/8/2020,10:21:59,0.000000,0.000000,0.00,0.00,0.000,0.00,9999,15.34,59.61,13.50,56.30,15.57,60.03,13.41,0.91,2542.03,774.81,-2.06,-0.63,26.69,27.56,-15.50,0.22,-0.18,9.29,0.00,-0.00,0.00,0.00,0.69,2.00,
0:00:58,NA:NA:NA,58.4,58378,1.0,0,8/8/2020,10:22:0,0.000000,0.000000,0.00,0.00,0.000,0.00,9999,15.32,59.57,13.35,56.02,15.50,59.90,13.41,0.91,2543.51,775.26,1.47,0.45,27.06,27.56,-15.06,0.25,-0.21,9.26,0.00,-0.00,0.00,0.00,0.69,2.00,
0:00:59,NA:NA:NA,59.4,59379,1.0,0,8/8/2020,10:22:1,0.000000,0.000000,0.00,0.00,0.000,0.00,9999,15.27,59.49,13.19,55.74,15.48,59.86,13.41,0.91,2544.98,775.71,1.47,0.45,27.75,28.56,-15.06,0.24,-0.21,9.31,-0.00,0.00,-0.00,0.00,0.69,2.00,
0:01:00,NA:NA:NA,60.4,60379,1.0,0,8/8/2020,10:22:2,0.000000,0.000000,0.00,0.00,0.000,0.00,9999,15.27,59.49,13.08,55.54,15.47,59.85,13.41,0.91,2544.39,775.53,-0.59,-0.18,27.38,29.00,-15.88,0.25,-0.19,9.29,-0.00,0.00,-0.00,0.00,0.69,2.00,
0:01:01,NA:NA:NA,61.4,61380,1.0,0,8/8/2020,10:22:3,0.000000,0.000000,0.00,0.00,0.000,0.00,9999,15.30,59.53,13.12,55.62,15.46,59.83,13.41,0.91,2543.80,775.35,-0.59,-0.18,28.56,29.00,-15.50,0.25,-0.22,9.29,0.00,0.00,0.00,0.00,0.69,2.00,
0:01:02,NA:NA:NA,62.4,62380,1.0,0,8/8/2020,10:22:4,0.000000,0.000000,0.00,0.00,0.000,0.00,9999,15.30,59.53,13.15,55.66,15.44,59.79,13.41,0.91,2544.09,775.44,0.29,0.09,27.38,27.88,-16.25,0.25,-0.22,9.29,-0.00,-0.00,-0.00,0.00,0.69,2.00,
0:01:03,NA:NA:NA,63.4,63380,1.0,0,8/8/2020,10:22:5,0.000000,0.000000,0.00,0.00,0.000,0.00,9999,15.30,59.53,13.19,55.74,15.41,59.74,13.41,0.91,2545.27,775.80,1.18,0.36,27.75,27.88,-15.50,0.22,-0.21,9.28,-0.00,0.00,-0.00,0.00,0.69,2.00,
0:01:04,NA:NA:NA,64.4,64380,1.0,0,8/8/2020,10:22:6,0.000000,0.000000,0.00,0.00,0.000,0.00,9999,15.32,59.57,13.21,55.78,15.39,59.70,13.41,0.91,2544.39,775.53,-0.88,-0.27,28.19,27.56,-15.50,0.23,-0.23,9.28,-0.00,-0.00,0.00,0.00,0.69,2.00,
0:01:05,NA:NA:NA,65.4,65384,1.0,0,8/8/2020,10:22:7,0.000000,0.000000,0.00,0.00,0.000,0.00,9999,15.23,59.41,13.19,55.74,15.34,59.61,13.41,0.91,2544.09,775.44,-0.29,-0.09,28.19,28.25,-15.06,0.20,-0.22,9.27,0.00,0.00,0.00,0.00,0.69,2.00,
0:01:06,NA:NA:NA,66.4,66385,1.0,0,8/8/2020,10:22:8,0.000000,0.000000,0.00,0.00,0.000,0.00,9999,15.16,59.29,13.03,55.46,15.30,59.54,13.41,0.91,2543.80,775.35,-0.29,-0.09,27.75,28.25,-14.75,0.22,-0.21,9.29,0.00,-0.00,-0.00,0.00,0.69,2.00,
0:01:07,NA:NA:NA,67.4,67385,1.0,0,8/8/2020,10:22:9,0.000000,0.000000,0.00,0.00,0.000,0.00,9999,15.12,59.21,12.97,55.34,15.27,59.49,13.41,0.91,2543.51,775.26,-0.30,-0.09,27.06,28.25,-14.75,0.21,-0.23,9.30,-0.00,0.00,0.00,0.00,0.69,2.00,
0:01:08,NA:NA:NA,68.4,68385,1.0,0,8/8/2020,10:22:10,0.000000,0.000000,0.00,0.00,0.000,0.00,9999,15.14,59.25,12.95,55.30,15.25,59.45,13.41,0.91,2543.21,775.17,-0.29,-0.09,29.69,28.56,-15.50,0.23,-0.25,9.27,0.00,0.00,0.00,0.00,0.69,2.00,
0:01:09,NA:NA:NA,69.4,69385,1.0,0,8/8/2020,10:22:11,0.000000,0.000000,0.00,0.00,0.000,0.00,9999,15.10,59.17,12.90,55.22,15.23,59.41,13.41,0.91,2544.39,775.53,1.18,0.36,26.69,29.00,-14.75,0.22,-0.20,9.25,0.00,-0.00,0.00,0.00,0.69,2.00,
0:01:10,NA:NA:NA,70.4,70385,1.0,0,8/8/2020,10:22:12,0.000000,0.000000,0.00,0.00,0.000,0.00,9999,15.07,59.13,12.97,55.34,15.23,59.41,13.41,0.91,2542.92,775.08,-1.47,-0.45,27.75,28.25,-15.50,0.25,-0.21,9.31,-0.00,0.00,-0.00,0.00,0.69,2.00,
0:01:11,NA:NA:NA,71.4,71385,1.0,0,8/8/2020,10:22:13,0.000000,0.000000,0.00,0.00,0.000,0.00,9999,14.99,58.98,12.97,55.34,15.18,59.32,13.41,0.91,2542.33,774.90,-0.59,-0.18,27.38,27.50,-17.00,0.21,-0.23,9.28,0.00,-0.00,0.00,0.00,0.69,2.00,
0:01:12,NA:NA:NA,72.4,72385,1.0,0,10/14/2023,10:22:14,0.000000,0.000000,0.00,0.00,0.000,0.00,9999,14.94,58.90,12.99,55.38,15.14,59.25,13.41,0.91,2543.80,775.35,1.47,0.45,27.75,28.56,-15.06,0.23,-0.22,9.27,0.00,0.00,0.00,0.00,0.69,2.00,
0:01:13,NA:NA:NA,73.4,73385,1.0,0,10/14/2023,10:22:15,0.000000,0.000000,0.00,0.00,0.000,0.00,9999,14.92,58.86,13.08,55.54,15.12,59.22,13.41,0.91,2543.51,775.26,-0.30,-0.09,27.06,28.25,-15.06,0.22,-0.24,9.28,-0.00,0.00,0.00,0.00,0.69,2.00,
0:01:14,NA:NA:NA,74.4,74385,1.0,0,10/14/2023,10:22:16,0.000000,0.000000,0.00,0.00,0.000,0.00,9999,14.90,58.82,13.01,55.42,15.08,59.14,13.41,0.91,2543.51,775.26,0.00,0.00,28.19,27.50,-15.50,0.22,-0.23,9.30,0.00,-0.00,0.00,0.00,0.69,2.00,
0:01:15,NA:NA:NA,75.4,75385,1.0,0,10/14/2023,10:22:17,0.000000,0.000000,0.00,0.00,0.000,0.00,9999,14.92,58.86,12.99,55.38,15.06,59.11,13.41,0.91,2544.09,775.44,0.59,0.18,27.75,27.88,-14.38,0.21,-0.24,9.27,0.00,0.00,-0.00,0.00,0.69,2.00,
0:01:16,NA:NA:NA,76.4,76385,1.0,0,10/14/2023,10:22:18,0.000000,0.000000,0.00,0.00,0.000,0.00,9999,14.92,58.86,13.06,55.50,15.06,59.11,13.41,0.91,2543.51,775.26,-0.59,-0.18,27.75,28.25,-15.75,0.20,-0.26,9.29,-0.00,0.00,-0.00,0.00,0.69,2.00,
0:01:17,NA:NA:NA,77.4,77385,1.0,0,10/14/2023,10:22:19,0.000000,0.000000,0.00,0.00,0.000,0.00,9999,14.90,58.82,13.06,55.50,15.06,59.11,13.41,0.91,2542.03,774.81,-1.47,-0.45,45.25,44.75,-26.88,0.19,-0.27,9.30,0.00,-0.00,0.00,0.00,0.69,2.00,
0:01:18,NA:NA:NA,78.4,78385,1.0,0,10/14/2023,10:22:20,0.000000,0.000000,0.00,0.00,0.000,0.00,9999,14.81,58.66,13.08,55.54,15.01,59.02,13.41,0.91,2543.51,775.26,1.47,0.45,46.00,45.19,-24.25,0.27,-0.23,9.33,0.00,-0.00,0.00,0.00,0.94,1.81,
0:01:19,NA:NA:NA,79.4,79385,1.0,0,10/14/2023,10:22:21,0.000000,0.000000,0.00,0.00,0.000,0.00,9999,14.81,58.66,13.01,55.42,14.96,58.93,13.41,0.91,2544.39,775.53,0.88,0.27,45.25,45.56,-25.38,0.21,-0.25,9.33,0.00,0.00,-0.00,0.00,1.00,1.69,
0:01:20,NA:NA:NA,80.4,80385,1.0,0,10/14/2023,10:22:22,0.000000,0.000000,0.00,0.00,0.000,0.00,9999,14.74,58.54,12.92,55.26,14.93,58.87,13.41,0.91,2546.45,776.16,2.06,0.63,45.25,45.56,-25.00,0.23,-0.29,9.31,-0.00,0.01,0.00,0.00,1.00,1.69,
0:01:21,NA:NA:NA,81.4,81385,1.0,0,10/14/2023,10:22:23,0.000000,0.000000,0.00,0.00,0.000,0.00,9999,14.70,58.46,12.81,55.06,14.87,58.77,13.41,0.91,2544.39,775.53,-2.06,-0.63,45.56,45.56,-25.75,0.16,-0.22,9.32,0.00,-0.00,0.00,0.00,1.00,1.69,
0:01:22,NA:NA:NA,82.4,82385,1.0,0,10/14/2023,10:22:24,0.000000,0.000000,0.00,0.00,0.000,0.00,9999,14.72,58.50,12.70,54.86,14.85,58.73,13.41,0.91,2544.39,775.53,0.00,0.00,29.00,27.50,-15.25,0.30,-0.44,9.40,-0.04,-0.03,0.00,359.38,1.38,1.44,
0:01:23,NA:NA:NA,83.4,83385,1.0,0,10/14/2023,10:22:25,0.000000,0.000000,0.00,0.00,0.000,0.00,9999,14.65,58.38,12.65,54.78,14.86,58.75,13.41,0.91,2542.62,774.99,-1.77,-0.54,27.38,27.06,-14.88,0.09,-0.27,9.24,-0.01,0.01,-0.01,359.44,1.56,1.06,
0:01:24,NA:NA:NA,84.4,84385,1.0,0,10/14/2023,10:22:26,0.000000,0.000000,0.00,0.00,0.000,0.00,9999,14.61,58.30,12.68,54.82,14.84,58.71,13.41,0.91,2544.68,775.62,2.06,0.63,28.56,27.75,-15.69,0.15,-0.31,9.27,-0.00,0.00,-0.00,359.44,1.62,1.00,
0:01:25,NA:NA:NA,85.4,85385,1.0,0,10/14/2023,10:22:27,0.000000,0.000000,0.00,0.00,0.000,0.00,9999,14.59,58.26,12.63,54.74,14.82,58.68,13.41,0.91,2545.27,775.80,0.59,0.18,28.88,27.06,-15.69,0.13,-0.32,9.31,-0.00,0.00,0.00,359.44,1.62,1.00,
0:01:26,NA:NA:NA,86.4,86385,1.0,0,10/14/2023,10:22:28,0.000000,0.000000,0.00,0.00,0.000,0.00,9999,14.57,58.22,12.63,54.74,14.81,58.66,13.41,0.91,2541.74,774.72,-3.53,-1.08,27.06,27.75,-14.88,0.18,-0.33,9.29,-0.01,0.00,-0.00,359.44,1.62,1.00,
0:01:27,NA:NA:NA,87.4,87385,1.0,0,10/14/2023,10:22:29,0.000000,0.000000,0.00,0.00,0.000,0.00,9999,14.57,58.22,12.63,54.74,14.78,58.60,13.41,0.91,2543.80,775.35,2.06,0.63,27.75,27.06,-14.88,0.12,-0.33,9.28,0.00,-0.00,0.00,359.44,1.62,1.00,
0:01:28,NA:NA:NA,88.4,88385,1.0,0,10/14/2023,10:22:30,0.000000,0.000000,0.00,0.00,0.000,0.00,9999,14.52,58.14,12.65,54.78,14.75,58.55,13.41,0.91,2542.33,774.90,-1.47,-0.45,27.06,27.06,-16.06,0.10,-0.27,9.28,0.00,0.00,0.00,359.44,1.62,1.00,
0:01:29,NA:NA:NA,89.4,89385,1.0,0,10/14/2023,10:22:31,0.000000,0.000000,0.00,0.00,0.000,0.00,9999,14.52,58.14,12.72,54.90,14.73,58.51,13.41,0.91,2542.33,774.90,0.00,0.00,28.88,27.75,-16.38,0.13,-0.33,9.25,-0.01,0.01,-0.00,359.44,1.62,1.00,
0:01:30,NA:NA:NA,90.4,90385,1.0,0,10/14/2023,10:22:32,0.000000,0.000000,0.00,0.00,0.000,0.00,9999,14.43,57.98,12.72,54.90,14.72,58.50,13.41,0.91,2543.80,775.35,1.47,0.45,27.38,27.50,-16.38,0.18,-0.30,9.29,0.00,0.00,0.00,359.44,1.62,1.00,
0:01:31,NA:NA:NA,91.4,91385,1.0,0,10/14/2023,10:22:33,0.000000,0.000000,0.00,0.00,0.000,0.00,9999,14.43,57.98,12.77,54.98,14.71,58.48,13.41,0.91,2542.92,775.08,-0.88,-0.27,28.56,26.69,-16.69,0.12,-0.34,9.26,0.00,-0.00,-0.00,359.44,1.62,1.00,
0:01:32,NA:NA:NA,92.4,92385,1.0,0,10/14/2023,10:22:34,0.000000,0.000000,0.00,0.00,0.000,0.00,9999,14.46,58.02,12.90,55.22,14.72,58.50,13.41,0.91,2542.33,774.90,-0.59,-0.18,27.06,27.50,-15.25,0.13,-0.32,9.26,-0.00,0.00,0.00,359.44,1.62,1.00,
0:01:33,NA:NA:NA,93.4,93385,1.0,0,10/14/2023,10:22:35,0.000000,0.000000,0.00,0.00,0.000,0.00,9999,14.43,57.98,13.08,55.54,14.74,58.53,13.41,0.91,2542.92,775.08,0.59,0.18,27.38,27.75,-16.75,0.11,-0.32,9.28,-0.00,0.00,-0.00,359.44,1.62,1.00,
0:01:34,NA:NA:NA,94.4,94385,1.0,0,10/14/2023,10:22:36,0.000000,0.000000,0.00,0.00,0.000,0.00,9999,14.48,58.06,13.24,55.82,14.72,58.50,13.41,0.91,2543.21,775.17,0.30,0.09,27.38,27.00,-14.75,0.30,-0.51,9.66,0.23,-0.13,-0.01,359.56,1.06,1.25,
0:01:35,NA:NA:NA,95.4,95385,1.0,0,10/14/2023,10:22:37,0.000000,0.000000,0.00,0.00,0.000,0.00,9999,14.41,57.94,13.17,55.70,14.70,58.46,13.41,0.91,2544.39,775.53,1.18,0.36,30.50,28.75,-13.50,-0.59,-0.12,9.69,-0.01,0.31,0.13,4.00,4.44,-3.88,
0:01:36,NA:NA:NA,96.4,96385,1.0,0,10/14/2023,10:22:38,0.000000,0.000000,0.00,0.00,0.000,0.00,9999,14.46,58.02,13.06,55.50,14.68,58.42,13.41,0.91,2547.34,776.43,2.95,0.90,27.88,27.25,-16.88,-2.13,-1.32,11.13,0.17,-0.49,0.13,5.31,9.50,-7.88,
0:01:37,NA:NA:NA,97.4,97385,1.0,0,10/14/2023,10:22:39,0.000000,0.000000,0.00,0.00,0.000,0.00,9999,14.43,57.98,13.03,55.46,14.68,58.42,13.41,0.91,2542.03,774.81,-5.31,-1.62,16.06,19.25,-30.88,0.32,0.10,9.50,0.14,-0.07,-0.00,5.06,-0.88,2.38,
0:01:38,NA:NA:NA,98.4,98385,1.0,0,10/14/2023,10:22:40,0.000000,0.000000,0.00,0.00,0.000,0.00,9999,14.37,57.86,13.01,55.42,14.66,58.39,13.41,0.91,2541.74,774.72,-0.29,-0.09,16.00,18.56,-32.38,0.56,0.18,9.27,-0.00,0.00,-0.00,5.06,-1.06,2.75,
0:01:39,NA:NA:NA,99.4,99385,1.0,0,10/14/2023,10:22:41,0.000000,0.000000,0.00,0.00,0.000,0.00,9999,14.37,57.86,12.95,55.30,14.64,58.35,13.41,0.91,2545.57,775.89,3.83,1.17,15.19,18.06,-32.06,0.41,0.18,9.94,0.21,-0.21,-0.01,6.12,-2.50,4.06,
0:01:40,NA:NA:NA,100.4,100385,1.0,0,10/14/2023,10:22:42,0.000000,0.000000,0.00,0.00,0.000,0.00,9999,14.32,57.78,12.97,55.34,14.65,58.37,13.41,0.91,2542.92,775.08,-2.65,-0.81,13.56,17.69,-32.56,0.79,0.23,9.29,-0.07,0.06,-0.00,6.12,-2.62,3.94,
0:01:41,NA:NA:NA,101.4,101385,1.0,0,10/14/2023,10:22:43,0.000000,0.000000,0.00,0.00,0.000,0.00,9999,14.21,57.58,12.99,55.38,14.65,58.37,13.41,0.91,2541.74,774.72,-1.18,-0.36,15.38,18.56,-32.69,0.81,0.78,8.98,0.20,-0.11,-0.00,6.19,-3.38,4.50,
0:01:42,NA:NA:NA,102.4,102385,1.0,0,10/14/2023,10:22:44,0.000000,0.000000,0.00,0.00,0.000,0.00,9999,14.21,57.58,13.08,55.54,14.66,58.39,13.41,0.91,2542.03,774.81,0.29,0.09,15.38,17.88,-31.88,0.54,0.25,9.28,-0.00,-0.00,-0.00,6.12,-1.81,3.50,
0:01:43,NA:NA:NA,103.4,103385,1.0,0,10/14/2023,10:22:45,0.000000,0.000000,0.00,0.00,0.000,0.00,9999,14.19,57.54,13.06,55.50,14.68,58.42,13.41,0.91,2542.33,774.90,0.30,0.09,13.88,18.56,-31.19,0.52,0.21,9.29,0.00,0.00,-0.00,6.12,-1.81,3.50,
0:01:44,NA:NA:NA,104.4,104385,1.0,0,10/14/2023,10:22:46,0.000000,0.000000,0.00,0.00,0.000,0.00,9999,14.15,57.46,13.21,55.78,14.68,58.42,13.41,0.91,2542.03,774.81,-0.30,-0.09,13.88,18.25,-31.88,0.56,0.23,9.29,-0.00,-0.00,-0.00,6.12,-1.81,3.50,
0:01:45,NA:NA:NA,105.4,105385,1.0,0,10/14/2023,10:22:47,0.000000,0.000000,0.00,0.00,0.000,0.00,9999,14.15,57.46,13.26,55.86,14.67,58.41,13.41,0.91,2542.33,774.90,0.30,0.09,14.25,17.56,-31.88,0.55,0.21,9.27,-0.00,0.00,0.00,6.12,-1.81,3.50,
0:01:46,NA:NA:NA,106.4,106385,1.0,0,10/14/2023,10:22:48,0.000000,0.000000,0.00,0.00,0.000,0.00,9999,14.21,57.58,13.30,55.94,14.68,58.42,13.41,0.91,2541.44,774.63,-0.88,-0.27,15.00,18.25,-31.88,0.55,0.19,9.28,-0.00,0.00,0.00,6.12,-1.81,3.50,
0:01:47,NA:NA:NA,107.4,107385,1.0,0,10/14/2023,10:22:49,0.000000,0.000000,0.00,0.00,0.000,0.00,9999,14.23,57.62,13.41,56.14,14.70,58.46,13.41,0.91,2542.03,774.81,0.59,0.18,14.25,18.25,-32.25,0.55,0.22,9.26,0.00,0.00,0.00,6.12,-1.81,3.50,
0:01:48,NA:NA:NA,108.4,108385,1.0,0,10/14/2023,10:22:50,0.000000,0.000000,0.00,0.00,0.000,0.00,9999,14.23,57.62,13.39,56.10,14.70,58.46,13.41,0.91,2544.09,775.44,2.06,0.63,15.75,18.56,-32.25,0.54,0.21,9.27,0.00,-0.00,0.00,6.12,-1.81,3.50,
0:01:49,NA:NA:NA,109.4,109385,1.0,0,10/14/2023,10:22:51,0.000000,0.000000,0.00,0.00,0.000,0.00,9999,14.28,57.70,13.41,56.14,14.70,58.46,13.41,0.91,2541.44,774.63,-2.65,-0.81,16.19,18.88,-30.88,0.51,0.20,9.29,0.00,-0.00,-0.00,6.12,-1.75,3.50,
0:01:50,NA:NA:NA,110.4,110385,1.0,0,10/14/2023,10:22:52,0.000000,0.000000,0.00,0.00,0.000,0.00,9999,14.30,57.74,13.48,56.26,14.69,58.44,13.41,0.91,2541.15,774.54,-0.29,-0.09,15.38,18.88,-32.25,0.53,0.18,9.28,-0.00,0.00,0.00,6.12,-1.75,3.50,
0:01:51,NA:NA:NA,111.4,111385,1.0,0,10/14/2023,10:22:53,0.000000,0.000000,0.00,0.00,0.000,0.00,9999,14.28,57.70,13.50,56.30,14.71,58.48,13.41,0.91,2541.15,774.54,0.00,0.00,15.38,18.50,-31.19,0.55,0.19,9.30,-0.00,0.00,-0.00,6.12,-1.75,3.50,
0:01:52,NA:NA:NA,112.4,112385,1.0,0,10/14/2023,10:22:54,0.000000,0.000000,0.00,0.00,0.000,0.00,9999,14.30,57.74,13.41,56.14,14.70,58.46,13.41,0.91,2542.03,774.81,0.88,0.27,14.69,17.75,-32.25,0.52,0.18,9.28,-0.00,0.00,0.00,6.12,-1.75,3.50,
0:01:53,NA:NA:NA,113.4,113385,1.0,0,10/14/2023,10:22:55,0.000000,0.000000,0.00,0.00,0.000,0.00,9999,14.35,57.82,13.37,56.06,14.67,58.41,13.41,0.91,2542.62,774.99,0.59,0.18,15.75,18.50,-30.88,0.52,0.20,9.28,0.00,-0.00,-0.00,6.12,-1.75,3.50,
0:01:54,NA:NA:NA,114.4,114385,1.0,0,10/14/2023,10:22:56,0.000000,0.000000,0.00,0.00,0.000,0.00,9999,14.37,57.86,13.37,56.06,14.66,58.39,13.41,0.91,2541.74,774.72,-0.88,-0.27,16.19,18.19,-32.25,0.53,0.16,9.29,-0.00,0.00,-0.00,6.12,-1.75,3.50,
0:01:55,NA:NA:NA,115.4,115385,1.0,0,10/14/2023,10:22:57,0.000000,0.000000,0.00,0.00,0.000,0.00,9999,14.37,57.86,13.39,56.10,14.65,58.37,13.41,0.91,2542.33,774.90,0.59,0.18,15.38,18.50,-33.38,0.52,0.21,9.25,-0.00,0.00,0.00,6.12,-1.75,3.50,
0:01:56,NA:NA:NA,116.4,116385,1.0,0,10/14/2023,10:22:58,0.000000,0.000000,0.00,0.00,0.000,0.00,9999,14.28,57.70,13.30,55.94,14.65,58.37,13.41,0.91,2541.44,774.63,-0.88,-0.27,14.69,19.25,-31.25,0.53,0.18,9.27,0.00,-0.00,0.00,6.12,-1.75,3.50,
0:01:57,NA:NA:NA,117.4,117385,1.0,0,10/14/2023,10:22:59,0.000000,0.000000,0.00,0.00,0.000,0.00,9999,14.37,57.86,13.37,56.06,14.65,58.37,13.41,0.91,2541.15,774.54,-0.29,-0.09,15.00,18.19,-31.19,0.53,0.20,9.28,0.00,-0.00,0.00,6.12,-1.75,3.50,
0:01:58,NA:NA:NA,118.4,118385,1.0,0,10/14/2023,10:23:0,0.000000,-68.228836,0.00,0.00,0.000,0.00,9999,14.41,57.94,13.44,56.18,14.65,58.37,13.41,0.91,2541.74,774.72,0.59,0.18,15.75,18.50,-33.06,0.53,0.19,9.29,0.00,0.00,-0.00,6.12,-1.75,3.50,
0:01:59,NA:NA:NA,119.4,119385,1.0,0,10/14/2023,10:23:1,59.776825,-69.708099,52271.14,15932.25,0.000,0.00,9999,14.41,57.94,13.50,56.30,14.66,58.39,13.41,0.91,2540.56,774.36,-1.18,-0.36,15.38,18.88,-31.56,0.51,0.19,9.31,-0.00,0.00,-0.00,6.12,-1.75,3.50,
0:02:00,NA:NA:NA,120.4,120385,1.0,0,10/14/2023,10:23:2,59.839153,-68.920609,52337.77,15952.55,0.000,0.00,9999,14.46,58.02,13.52,56.34,14.68,58.42,13.41,0.91,2541.44,774.63,0.88,0.27,14.25,18.88,-32.69,0.52,0.17,9.28,0.00,0.00,-0.00,6.12,-1.75,3.50,
0:02:01,NA:NA:NA,121.4,121385,1.0,0,10/14/2023,10:23:3,59.812851,-67.447807,52309.66,15943.99,0.000,0.00,9999,14.41,57.94,13.64,56.54,14.68,58.42,13.40,0.91,2558.83,779.93,17.39,5.30,14.25,16.38,-32.38,0.54,0.19,9.30,0.00,-0.00,-0.00,6.12,-1.75,3.50,
0:02:02,NA:NA:NA,122.4,122385,1.0,0,10/14/2023,10:23:4,59.748112,-67.435387,52240.42,15922.88,0.000,0.00,9999,14.43,57.98,14.04,57.26,14.78,58.60,13.40,0.91,2558.53,779.84,-0.29,-0.09,13.19,17.06,-33.38,0.54,0.19,9.29,-0.00,-0.00,0.00,6.12,-1.75,3.50,
0:02:03,NA:NA:NA,123.4,123385,1.0,0,10/14/2023,10:23:5,59.750580,-67.422951,52243.06,15923.69,0.000,0.00,9999,14.50,58.10,14.46,58.02,14.87,58.77,13.40,0.91,2558.53,779.84,0.00,0.00,15.00,16.38,-33.50,0.54,0.18,9.27,-0.00,0.00,-0.00,6.12,-1.75,3.50,
0:02:04,NA:NA:NA,124.4,124385,1.0,0,10/14/2023,10:23:6,59.753048,-67.410522,52245.70,15924.49,0.000,0.00,9999,14.52,58.14,14.83,58.70,14.95,58.91,13.40,0.91,2558.53,779.84,0.00,0.00,15.00,16.38,-32.75,0.54,0.19,9.27,0.00,-0.00,-0.00,6.12,-1.75,3.50,
0:02:05,NA:NA:NA,125.4,125385,1.0,0,10/14/2023,10:23:7,59.755512,-67.398087,52248.34,15925.29,0.000,0.00,9999,14.57,58.22,15.07,59.13,15.02,59.04,13.40,0.91,2559.12,780.02,0.59,0.18,14.69,16.38,-33.88,0.53,0.17,9.30,0.00,0.00,0.00,6.12,-1.75,3.50,
0:02:06,NA:NA:NA,126.4,126386,1.0,0,10/14/2023,10:23:8,59.757973,-67.385651,52250.97,15926.10,0.000,0.00,9999,14.61,58.30,15.32,59.57,15.10,59.18,13.40,0.91,2558.53,779.84,-0.59,-0.18,14.00,16.69,-32.75,0.53,0.18,9.29,0.00,-0.00,0.00,6.12,-1.75,3.50,
0:02:07,NA:NA:NA,127.4,127386,1.0,0,10/14/2023,10:23:9,59.760433,-67.373215,52253.61,15926.90,0.000,0.00,9999,14.65,58.38,15.56,60.01,15.16,59.29,13.40,0.91,2559.42,780.11,0.88,0.27,14.00,17.50,-33.19,0.53,0.17,9.29,0.00,-0.00,0.00,6.12,-1.75,3.50,
0:02:08,NA:NA:NA,128.4,128386,1.0,0,10/14/2023,10:23:10,59.762890,-67.360771,52256.24,15927.70,0.000,0.00,9999,14.68,58.42,15.65,60.17,15.21,59.38,13.40,0.91,2560.01,780.29,0.59,0.18,15.00,17.06,-32.38,0.51,0.14,9.31,0.00,0.00,0.00,6.12,-1.75,3.50,
0:02:09,NA:NA:NA,129.4,129386,1.0,0,10/14/2023,10:23:11,59.765347,-67.348328,52258.86,15928.50,0.000,0.00,9999,14.72,58.50,15.60,60.09,15.25,59.45,13.40,0.91,2560.30,780.38,0.30,0.09,14.69,17.06,-32.75,0.53,0.19,9.29,-0.00,0.00,-0.00,6.12,-1.75,3.50,
0:02:10,NA:NA:NA,130.4,130386,1.0,0,10/14/2023,10:23:12,59.767799,-67.335884,52261.49,15929.30,0.000,0.00,9999,14.70,58.46,15.41,59.73,15.27,59.49,13.40,0.91,2560.60,780.47,0.30,0.09,15.06,17.06,-33.88,0.53,0.17,9.29,-0.00,-0.00,0.00,6.12,-1.75,3.50,
0:02:11,NA:NA:NA,131.4,131386,1.0,0,10/14/2023,10:23:13,59.770252,-67.323441,52264.11,15930.10,0.000,0.00,9999,14.74,58.54,15.60,60.09,15.33,59.59,13.40,0.91,2559.71,780.20,-0.88,-0.27,15.75,16.00,-32.88,0.54,0.20,9.27,0.00,-0.00,0.00,6.12,-1.75,3.50,
0:02:12,NA:NA:NA,132.4,132386,1.0,0,10/14/2023,10:23:14,59.772701,-67.310989,52266.73,15930.90,0.000,0.00,9999,14.77,58.58,15.65,60.17,15.40,59.72,13.40,0.91,2560.01,780.29,0.29,0.09,14.69,16.69,-32.88,0.51,0.17,9.27,0.00,0.00,-0.00,6.12,-1.75,3.50,
0:02:13,NA:NA:NA,133.4,133386,1.0,0,10/14/2023,10:23:15,59.775150,-67.298538,52269.35,15931.70,0.000,0.00,9999,14.81,58.66,15.65,60.17,15.47,59.85,13.40,0.91,2561.19,780.65,1.18,0.36,13.56,17.88,-32.50,0.53,0.14,9.30,-0.00,0.00,0.00,6.12,-1.75,3.50,
0:02:14,NA:NA:NA,134.4,134386,1.0,0,10/14/2023,10:23:16,59.777596,-68.002083,52271.96,15932.50,0.000,0.00,9999,14.85,58.74,15.85,60.52,15.54,59.97,13.40,0.91,2560.60,780.47,-0.59,-0.18,14.38,17.50,-32.50,0.53,0.16,9.28,0.00,0.00,-0.00,6.12,-1.75,3.50,
0:02:15,NA:NA:NA,135.4,135386,1.0,0,10/14/2023,10:23:17,59.816093,-66.559227,52313.12,15945.04,0.000,0.00,9999,14.85,58.74,15.96,60.72,15.60,60.08,13.40,0.91,2560.89,780.56,0.30,0.09,13.56,17.50,-32.50,0.51,0.16,9.29,0.00,-0.00,-0.00,6.12,-1.75,3.50,
0:02:16,NA:NA:NA,136.4,136386,1.0,0,10/14/2023,10:23:18,59.742466,-94.992218,52234.38,15921.04,0.000,0.00,9999,14.90,58.82,16.09,60.96,15.68,60.22,13.40,0.91,2561.48,780.74,0.59,0.18,14.69,17.06,-32.06,0.53,0.17,9.31,0.00,-0.00,-0.00,6.12,-1.75,3.50,
0:02:17,NA:NA:NA,137.4,137386,1.0,0,10/14/2023,10:23:19,60.950378,-95.899048,53511.64,16310.35,0.000,0.00,9999,14.92,58.86,16.09,60.96,15.74,60.33,13.40,0.91,2561.48,780.74,0.00,0.00,41.25,43.38,-27.38,0.55,0.15,9.30,-0.00,0.00,-0.00,6.12,-1.75,3.50,
0:02:18,NA:NA:NA,138.4,138386,1.0,0,10/14/2023,10:23:20,60.893837,-95.995552,53452.56,16292.34,0.000,0.00,9999,14.99,58.98,16.00,60.80,15.80,60.44,13.40,0.91,2561.78,780.83,0.29,0.09,41.56,43.00,-27.38,0.52,0.16,9.30,0.00,0.00,-0.00,6.12,-1.75,3.50,
0:02:19,NA:NA:NA,139.4,139386,1.0,0,10/14/2023,10:23:21,60.840042,-95.985268,53396.29,16275.19,0.000,0.00,9999,15.03,59.05,16.13,61.04,15.88,60.58,13.40,0.91,2560.89,780.56,-0.88,-0.27,41.56,43.00,-27.38,0.54,0.15,9.29,0.00,-0.00,0.00,6.12,-1.75,3.50,
0:02:20,NA:NA:NA,140.4,140386,1.0,0,10/14/2023,10:23:22,60.844166,-95.974976,53400.61,16276.50,0.000,0.00,9999,15.05,59.09,16.26,61.27,15.95,60.71,13.40,0.91,2561.48,780.74,0.59,0.18,42.00,43.38,-28.56,0.54,0.18,9.28,-0.00,0.00,-0.00,6.12,-1.75,3.50,
0:02:21,NA:NA:NA,141.4,141386,1.0,0,10/14/2023,10:23:23,60.848289,-95.964684,53404.92,16277.82,0.000,0.00,9999,15.14,59.25,16.40,61.51,16.02,60.84,13.40,0.91,2561.78,780.83,0.29,0.09,40.06,43.38,-27.38,0.52,0.15,9.29,-0.00,0.00,-0.00,6.12,-1.75,3.50,
0:02:22,NA:NA:NA,142.4,142386,1.0,0,10/14/2023,10:23:24,60.852409,-94.946693,53409.23,16279.13,0.000,0.00,9999,15.16,59.29,16.50,61.71,16.09,60.96,13.40,0.91,2557.65,779.57,-4.13,-1.26,40.88,43.75,-28.19,0.52,0.14,9.28,0.00,-0.00,0.00,6.12,-1.75,3.50,
0:02:23,NA:NA:NA,143.4,143386,1.0,0,10/14/2023,10:23:25,61.023991,-96.819695,53588.44,16333.76,0.000,0.00,9999,15.18,59.33,16.31,61.35,16.07,60.93,13.40,0.91,2561.78,780.83,4.13,1.26,41.56,44.06,-28.19,0.54,0.16,9.30,0.00,-0.00,0.00,6.12,-1.75,3.50,
0:02:24,NA:NA:NA,144.4,144386,1.0,0,10/14/2023,10:23:26,60.796822,-95.933777,53351.04,16261.39,0.000,0.00,9999,15.21,59.37,16.26,61.27,16.09,60.96,13.40,0.91,2562.95,781.19,1.18,0.36,41.25,43.00,-28.19,0.51,0.16,9.30,-0.00,0.00,-0.00,6.12,-1.75,3.50,
0:02:25,NA:NA:NA,145.4,145386,1.0,0,10/14/2023,10:23:27,60.864761,-95.022079,53422.16,16283.07,0.000,0.00,9999,15.23,59.41,15.96,60.72,16.13,61.03,13.40,0.91,2562.36,781.01,-0.59,-0.18,41.56,43.06,-27.38,0.53,0.15,9.29,-0.00,0.00,0.00,6.12,-1.75,3.50,
0:02:26,NA:NA:NA,146.4,146386,1.0,0,10/14/2023,10:23:28,60.928295,-95.142433,53488.57,16303.32,0.000,0.00,9999,15.30,59.53,15.67,60.21,16.20,61.16,13.41,0.91,2546.45,776.16,-15.91,-4.85,40.88,43.00,-27.06,0.52,0.16,9.29,0.00,-0.00,0.00,6.12,-1.75,3.50,
0:02:27,NA:NA:NA,147.4,147386,1.0,0,10/14/2023,10:23:29,60.925995,-95.132027,53486.17,16302.58,0.000,0.00,9999,15.30,59.53,15.60,60.09,16.16,61.09,13.41,0.91,2546.45,776.16,0.00,0.00,40.06,42.69,-27.75,0.52,0.14,9.31,-0.00,0.00,-0.00,6.12,-1.75,3.50,
0:02:28,NA:NA:NA,148.4,148386,1.0,4,10/14/2023,10:23:30,60.930069,-102.328873,53490.43,16303.88,0.637,0.00,3929,15.30,59.53,15.52,59.93,16.13,61.03,13.41,0.91,2546.75,776.25,0.30,0.09,40.88,41.88,-27.75,0.55,0.11,9.28,-0.00,-0.00,0.00,6.12,-1.75,3.50,
0:02:29,NA:NA:NA,149.4,149386,1.0,5,10/14/2023,10:23:31,31.890968,-102.329086,2819.95,859.52,0.131,0.00,435,15.32,59.57,15.27,59.49,16.07,60.93,13.41,0.91,2547.34,776.43,0.59,0.18,40.06,44.06,-27.75,0.50,0.19,9.25,0.00,-0.00,-0.00,6.12,-1.75,3.50,
0:02:30,NA:NA:NA,150.4,150386,1.0,6,10/14/2023,10:23:32,31.891874,-102.329086,2786.07,849.19,0.211,0.00,240,15.32,59.57,14.99,58.98,16.05,60.89,13.41,0.91,2549.69,777.15,2.36,0.72,42.69,43.00,-27.38,0.54,0.16,9.29,0.00,-0.00,-0.00,6.12,-1.75,3.50,
0:02:31,NA:NA:NA,151.4,151386,1.0,7,10/14/2023,10:23:33,31.891870,-102.329071,2786.81,849.42,0.065,0.00,231,15.36,59.65,14.99,58.98,16.06,60.91,13.41,0.91,2550.28,777.33,0.59,0.18,41.56,43.38,-27.38,0.54,0.18,9.31,0.00,-0.00,0.00,6.12,-1.75,3.50,
0:02:32,NA:NA:NA,152.4,152386,1.0,7,10/14/2023,10:23:34,31.891861,-102.329063,2797.38,852.64,0.084,0.00,231,15.38,59.69,14.92,58.86,16.07,60.93,13.40,0.91,2552.93,778.13,2.65,0.81,39.75,43.38,-27.38,0.47,0.17,9.30,-0.00,-0.00,0.00,6.12,-1.75,3.50,
0:02:33,NA:NA:NA,153.4,153386,1.0,7,10/14/2023,10:23:35,31.891855,-102.329063,2801.99,854.05,0.549,0.00,231,15.38,59.69,15.05,59.09,16.05,60.89,13.40,0.91,2553.82,778.40,0.89,0.27,42.00,43.38,-27.75,0.53,0.13,9.33,-0.00,-0.00,0.00,6.12,-1.75,3.50,
0:02:34,NA:NA:NA,154.4,154386,1.0,7,10/14/2023,10:23:36,31.891853,-102.329063,2804.22,854.73,0.686,0.00,231,15.41,59.73,15.21,59.37,16.03,60.85,13.40,0.91,2564.72,781.73,10.90,3.32,42.00,43.38,-27.38,0.53,0.16,9.27,0.00,0.00,-0.00,6.12,-1.75,3.50,
0:02:35,NA:NA:NA,155.4,155387,1.0,7,10/14/2023,10:23:37,31.891846,-102.329056,2807.48,855.72,0.149,0.00,231,15.47,59.85,15.14,59.25,16.10,60.98,13.40,0.91,2562.66,781.10,-2.06,-0.63,39.75,42.56,-26.56,0.52,0.17,9.28,0.00,0.00,0.00,6.12,-1.75,3.50,
0:02:36,NA:NA:NA,156.4,156387,1.0,7,10/14/2023,10:23:38,31.891836,-102.329048,2815.87,858.28,0.011,0.00,231,15.54,59.97,15.34,59.61,16.19,61.14,13.40,0.91,2562.66,781.10,0.00,0.00,40.88,44.06,-28.06,0.52,0.14,9.27,0.00,-0.00,-0.00,6.12,-1.75,3.50,
0:02:37,NA:NA:NA,157.4,157387,1.0,7,10/14/2023,10:23:39,31.891829,-102.329048,2822.43,860.28,0.084,0.00,231,15.56,60.01,15.47,59.85,16.26,61.27,13.40,0.91,2563.25,781.28,0.59,0.18,42.00,43.75,-27.38,0.55,0.14,9.29,0.00,0.00,0.00,6.12,-1.75,3.50,
0:02:38,NA:NA:NA,158.4,158387,1.0,7,10/14/2023,10:23:40,31.891821,-102.329041,2826.94,861.65,0.057,0.00,230,15.58,60.05,15.63,60.13,16.32,61.38,13.40,0.91,2562.36,781.01,-0.88,-0.27,42.00,43.00,-27.75,0.54,0.12,9.29,-0.00,0.00,0.00,6.12,-1.75,3.50,
0:02:39,NA:NA:NA,159.4,159387,1.0,7,10/14/2023,10:23:41,31.891819,-102.329041,2828.97,862.27,0.190,0.00,230,15.65,60.17,15.82,60.48,16.38,61.48,13.40,0.91,2562.36,781.01,0.00,0.00,40.88,43.00,-27.06,0.54,0.12,9.30,0.00,0.00,0.00,6.12,-1.75,3.50,
0:02:40,NA:NA:NA,160.4,160387,1.0,7,10/14/2023,10:23:42,31.891817,-102.329041,2829.54,862.44,0.036,0.00,230,15.69,60.24,15.93,60.68,16.42,61.56,13.40,0.91,2563.25,781.28,0.88,0.27,40.88,43.06,-28.19,0.53,0.11,9.31,-0.00,-0.00,0.00,6.12,-1.75,3.50,
0:02:41,NA:NA:NA,161.4,161387,1.0,7,10/14/2023,10:23:43,31.891815,-102.329041,2830.06,862.60,0.221,0.00,230,15.74,60.32,16.07,60.92,16.50,61.70,13.40,0.91,2563.54,781.37,0.29,0.09,42.38,43.38,-27.06,0.51,0.16,9.31,-0.00,0.00,-0.00,6.12,-1.75,3.50,
0:02:42,NA:NA:NA,162.4,162387,1.0,7,10/14/2023,10:23:44,31.891815,-102.329041,2830.39,862.70,0.310,0.00,230,15.78,60.40,16.33,61.39,16.59,61.86,13.40,0.91,2563.54,781.37,0.00,0.00,24.75,26.75,-15.75,0.54,0.21,9.35,-0.00,-0.00,0.00,6.12,-1.44,3.44,
0:02:43,NA:NA:NA,163.4,163387,1.0,7,10/14/2023,10:23:45,31.891813,-102.329041,2829.74,862.51,0.148,0.00,230,15.89,60.60,16.57,61.83,16.68,62.02,13.40,0.91,2562.07,780.92,-1.47,-0.45,25.88,26.38,-16.50,0.54,0.13,9.32,0.00,-0.00,0.00,6.12,-1.38,3.38,
0:02:44,NA:NA:NA,164.4,164387,1.0,7,10/14/2023,10:23:46,31.891811,-102.329033,2830.16,862.63,0.455,0.00,230,15.85,60.52,16.70,62.06,16.75,62.15,13.40,0.91,2564.13,781.55,2.06,0.63,25.50,26.38,-17.25,0.55,0.11,9.28,-0.00,0.00,-0.00,6.12,-1.38,3.38,
0:02:45,NA:NA:NA,165.4,165387,1.0,7,10/14/2023,10:23:47,31.891809,-102.329033,2828.19,862.03,0.472,0.00,230,15.74,60.32,16.88,62.38,16.82,62.28,13.40,0.91,2562.95,781.19,-1.18,-0.36,24.50,26.25,-16.69,0.52,0.10,9.35,0.02,-0.02,-0.00,6.19,-1.12,3.38,
0:02:46,NA:NA:NA,166.4,166387,1.0,7,10/14/2023,10:23:48,31.891811,-102.329041,2827.77,861.90,0.990,0.00,230,15.65,60.17,17.14,62.85,16.87,62.37,13.40,0.91,2563.54,781.37,0.59,0.18,24.69,26.88,-16.00,0.57,0.10,9.28,-0.00,0.00,0.00,6.19,-1.19,3.62,
0:02:47,NA:NA:NA,167.4,167387,1.0,7,10/14/2023,10:23:49,31.891817,-102.329041,2825.94,861.34,0.907,0.00,230,15.65,60.17,17.32,63.17,16.94,62.49,13.40,0.91,2563.25,781.28,-0.29,-0.09,24.00,25.50,-16.69,0.77,0.17,9.20,0.03,-0.05,-0.01,6.19,-1.31,3.81,
0:02:48,NA:NA:NA,168.4,168387,1.0,6,10/14/2023,10:23:50,31.891815,-102.329041,2825.23,861.13,0.784,0.00,240,15.67,60.21,17.27,63.09,17.00,62.60,13.40,0.91,2563.54,781.37,0.29,0.09,25.06,26.00,-17.69,0.67,0.33,9.06,0.05,-0.04,-0.00,6.19,-1.62,4.06,
0:02:49,NA:NA:NA,169.4,169387,1.0,6,10/14/2023,10:23:51,31.891806,-102.329041,2824.96,861.05,0.596,0.00,240,15.69,60.24,17.43,63.37,17.06,62.71,13.40,0.91,2564.13,781.55,0.59,0.18,24.50,26.25,-15.69,0.67,0.27,9.32,0.01,-0.01,-0.00,6.19,-1.81,4.19,
0:02:50,NA:NA:NA,170.4,170387,1.0,6,10/14/2023,10:23:52,31.891806,-102.329041,2826.09,861.39,0.281,0.00,240,15.74,60.32,17.58,63.64,17.11,62.80,13.40,0.91,2563.84,781.46,-0.30,-0.09,23.88,24.69,-17.38,0.87,0.37,9.28,0.00,-0.01,0.00,6.19,-2.50,4.81,
0:02:51,NA:NA:NA,171.4,171387,1.0,6,10/14/2023,10:23:53,31.891804,-102.329041,2826.76,861.60,0.307,0.00,240,15.82,60.48,17.69,63.84,17.19,62.94,13.40,0.91,2562.95,781.19,-0.88,-0.27,22.56,25.25,-18.50,0.86,0.41,9.28,0.01,-0.00,0.00,6.19,-2.69,4.94,
0:02:52,NA:NA:NA,172.4,172387,1.0,6,10/14/2023,10:23:54,31.891800,-102.329041,2825.23,861.13,0.289,0.00,240,15.87,60.56,17.95,64.31,17.26,63.07,13.40,0.91,2564.43,781.64,1.48,0.45,23.25,24.88,-18.50,0.89,0.53,9.24,-0.00,0.00,-0.00,6.19,-2.88,5.12,
0:02:53,NA:NA:NA,173.4,173387,1.0,7,10/14/2023,10:23:55,31.891798,-102.329041,2825.17,861.11,0.333,0.00,230,15.87,60.56,18.00,64.39,17.33,63.19,13.40,0.91,2562.95,781.19,-1.48,-0.45,22.88,23.50,-18.75,0.92,0.49,9.22,0.00,-0.00,0.00,6.19,-2.88,5.12,
0:02:54,NA:NA:NA,174.4,174387,1.0,6,10/14/2023,10:23:56,31.891796,-102.329041,2823.87,860.72,0.205,0.00,240,15.87,60.56,18.24,64.83,17.38,63.28,13.40,0.91,2562.66,781.10,-0.29,-0.09,22.19,24.19,-18.19,0.94,0.49,9.27,-0.00,-0.00,0.00,6.19,-2.88,5.12,
0:02:55,NA:NA:NA,175.4,175387,1.0,7,10/14/2023,10:23:57,31.891798,-102.329041,2824.88,861.02,0.367,0.00,230,15.89,60.60,18.30,64.94,17.43,63.37,13.40,0.91,2564.43,781.64,1.77,0.54,22.88,23.88,-18.19,0.89,0.54,9.27,0.01,-0.01,0.00,6.19,-2.88,5.19,
0:02:56,NA:NA:NA,176.4,176387,1.0,7,10/14/2023,10:23:58,31.891800,-102.329048,2824.74,860.98,0.275,0.00,230,15.89,60.60,18.32,64.98,17.49,63.48,13.40,0.91,2563.84,781.46,-0.59,-0.18,23.69,24.88,-18.50,0.94,0.50,9.24,0.00,-0.00,-0.00,6.19,-2.88,5.12,
0:02:57,NA:NA:NA,177.4,177387,1.0,7,10/14/2023,10:23:59,31.891800,-102.329048,2821.92,860.12,0.138,0.00,230,15.93,60.68,18.50,65.30,17.56,63.61,13.40,0.91,2564.43,781.64,0.59,0.18,23.19,24.19,-18.56,0.96,0.50,9.25,0.00,0.00,-0.00,6.19,-2.94,5.19,
0:02:58,NA:NA:NA,178.4,178387,1.0,7,10/14/2023,10:24:0,31.891798,-102.329056,2821.78,860.08,0.341,0.00,230,15.82,60.48,18.50,65.30,17.59,63.66,13.40,0.91,2563.54,781.37,-0.89,-0.27,22.75,24.50,-18.25,0.99,0.50,9.30,-0.01,0.01,0.00,6.19,-2.94,5.19,
0:02:59,NA:NA:NA,179.4,179387,1.0,7,10/14/2023,10:24:1,31.891796,-102.329056,2819.67,859.44,0.179,0.00,230,15.63,60.13,18.37,65.06,17.59,63.66,13.40,0.91,2564.13,781.55,0.59,0.18,22.75,24.19,-18.25,0.97,0.49,9.30,-0.00,-0.00,0.00,6.19,-3.00,5.38,
0:03:00,NA:NA:NA,180.4,180387,1.0,7,10/14/2023,10:24:2,31.891794,-102.329048,2819.74,859.46,0.362,0.00,230,15.56,60.01,18.32,64.98,17.60,63.68,13.40,0.91,2563.84,781.46,-0.30,-0.09,22.06,24.19,-18.19,0.96,0.60,9.27,0.05,-0.02,-0.01,6.25,-3.19,5.62,
0:03:01,NA:NA:NA,181.4,181387,1.0,6,10/14/2023,10:24:3,31.891796,-102.329048,2821.46,859.98,0.264,0.00,279,15.60,60.09,18.46,65.22,17.64,63.75,13.40,0.91,2565.61,782.00,1.77,0.54,22.50,24.56,-17.75,1.01,0.64,9.25,0.02,-0.02,0.00,6.19,-3.38,5.94,
0:03:02,NA:NA:NA,182.4,182387,1.0,6,10/14/2023,10:24:4,31.891800,-102.329041,2822.09,860.17,0.134,0.00,279,15.69,60.24,18.46,65.22,17.67,63.81,13.40,0.91,2564.72,781.73,-0.88,-0.27,24.00,24.56,-18.56,0.98,0.55,9.25,-0.01,-0.00,0.00,6.19,-3.12,6.06,
0:03:03,NA:NA:NA,183.4,183387,1.0,7,10/14/2023,10:24:5,31.891800,-102.329033,2820.61,859.72,0.416,0.00,230,15.85,60.52,18.37,65.06,17.70,63.86,13.40,0.91,2563.84,781.46,-0.88,-0.27,22.50,24.56,-18.56,0.96,0.58,9.24,0.01,-0.01,-0.00,6.19,-3.06,6.12,
0:03:04,NA:NA:NA,184.4,184387,1.0,7,10/14/2023,10:24:6,31.891802,-102.329033,2823.33,860.55,0.359,0.00,230,15.91,60.64,18.35,65.02,17.75,63.95,13.40,0.91,2564.72,781.73,0.88,0.27,22.88,24.50,-19.25,1.06,0.52,9.26,-0.00,0.00,0.00,6.25,-3.19,6.44,
0:03:05,NA:NA:NA,185.4,185387,1.0,8,10/14/2023,10:24:7,31.891804,-102.329033,2822.78,860.38,0.281,0.00,194,15.91,60.64,18.37,65.06,17.81,64.06,13.40,0.91,2565.61,782.00,0.88,0.27,22.06,24.06,-18.50,1.35,0.47,9.20,-0.00,-0.00,0.00,6.25,-3.31,7.25,
0:03:06,NA:NA:NA,186.4,186387,1.0,8,10/14/2023,10:24:8,31.891804,-102.329041,2821.30,859.93,0.677,0.00,194,15.74,60.32,18.37,65.06,17.79,64.02,13.40,0.91,2565.31,781.91,-0.30,-0.09,21.69,23.75,-17.75,1.20,0.66,9.20,0.01,-0.02,0.00,6.25,-3.62,7.06,
0:03:07,NA:NA:NA,187.4,187387,1.0,8,10/14/2023,10:24:9,31.891804,-102.329033,2823.07,860.47,0.224,0.00,194,15.71,60.28,18.37,65.06,17.77,63.99,13.40,0.91,2565.90,782.09,0.59,0.18,21.25,24.06,-19.25,1.16,0.66,9.24,-0.01,0.00,0.00,6.25,-3.69,7.19,
0:03:08,NA:NA:NA,188.4,188387,1.0,8,10/14/2023,10:24:10,31.891806,-102.329033,2828.17,862.03,0.158,0.00,194,15.60,60.09,18.35,65.02,17.76,63.97,13.40,0.91,2565.61,782.00,-0.29,-0.09,22.06,23.75,-18.50,1.15,0.68,9.23,-0.01,0.00,0.00,6.25,-3.69,7.19,
0:03:09,NA:NA:NA,189.4,189387,1.0,8,10/14/2023,10:24:11,31.891808,-102.329033,2828.53,862.14,0.579,0.00,194,15.54,59.97,18.21,64.79,17.74,63.93,13.40,0.91,2565.61,782.00,0.00,0.00,20.88,23.00,-19.25,1.12,0.67,9.26,-0.02,-0.01,0.00,6.25,-3.62,7.31,
0:03:10,NA:NA:NA,190.4,190387,1.0,8,10/14/2023,10:24:12,31.891808,-102.329025,2831.51,863.04,0.062,0.00,194,15.49,59.89,18.17,64.71,17.73,63.91,13.40,0.91,2565.02,781.82,-0.59,-0.18,22.06,24.50,-20.00,1.20,0.63,9.20,0.00,0.00,-0.00,6.31,-3.56,7.31,
0:03:11,NA:NA:NA,191.4,191387,1.0,8,10/14/2023,10:24:13,31.891808,-102.329025,2831.73,863.11,0.078,0.00,194,15.49,59.89,18.13,64.63,17.74,63.93,13.40,0.91,2565.02,781.82,0.00,0.00,22.69,24.06,-19.25,1.13,0.73,9.23,-0.00,0.01,0.00,6.31,-3.56,7.25,
0:03:12,NA:NA:NA,192.4,192387,1.0,8,10/14/2023,10:24:14,31.891809,-102.329025,2833.14,863.54,0.622,0.00,194,15.49,59.89,17.97,64.35,17.76,63.97,13.40,0.91,2563.84,781.46,-1.18,-0.36,22.38,24.06,-19.25,1.13,0.68,9.23,0.00,-0.00,-0.00,6.25,-3.56,7.25,
0:03:13,NA:NA:NA,193.4,193387,1.0,8,10/14/2023,10:24:15,31.891813,-102.329025,2835.82,864.36,0.286,0.00,194,15.60,60.09,18.06,64.51,17.81,64.06,13.40,0.91,2564.43,781.64,0.59,0.18,22.06,23.38,-18.88,1.18,0.63,9.25,-0.00,0.00,0.00,6.25,-3.62,7.25,
0:03:14,NA:NA:NA,194.4,194387,1.0,8,10/14/2023,10:24:16,31.891817,-102.329025,2836.59,864.59,0.238,0.00,194,15.74,60.32,18.04,64.47,17.85,64.13,13.40,0.91,2563.54,781.37,-0.89,-0.27,22.06,23.38,-19.56,1.18,0.68,9.22,0.00,-0.00,0.00,6.25,-3.62,7.25,
0:03:15,NA:NA:NA,195.4,195387,1.0,8,10/14/2023,10:24:17,31.891817,-102.329033,2837.33,864.82,0.203,0.00,194,15.87,60.56,18.13,64.63,17.87,64.17,13.40,0.91,2562.66,781.10,-0.88,-0.27,21.25,23.38,-18.50,1.19,0.72,9.20,-0.00,-0.00,0.00,6.25,-3.62,7.25,
0:03:16,NA:NA:NA,196.4,196387,1.0,8,10/14/2023,10:24:18,31.891817,-102.329033,2837.40,864.84,0.051,0.00,194,16.02,60.84,18.17,64.71,17.87,64.17,13.40,0.91,2564.72,781.73,2.06,0.63,21.38,23.75,-19.56,1.23,0.73,9.22,-0.00,0.00,0.00,6.25,-3.69,7.31,
0:03:17,NA:NA:NA,197.4,197387,1.0,8,10/14/2023,10:24:19,31.891817,-102.329033,2837.75,864.95,0.335,0.00,194,16.20,61.16,18.21,64.79,17.92,64.26,13.40,0.91,2563.84,781.46,-0.88,-0.27,21.38,23.00,-18.88,1.24,0.80,9.22,-0.00,0.00,0.00,6.31,-4.12,7.50,
0:03:18,NA:NA:NA,198.4,198387,1.0,8,10/14/2023,10:24:20,31.891813,-102.329033,2836.53,864.57,0.139,0.00,194,16.24,61.23,18.32,64.98,17.96,64.33,13.40,0.91,2565.02,781.82,1.18,0.36,38.38,40.50,-30.00,1.28,0.80,9.22,-0.01,0.01,0.00,6.31,-4.19,7.56,
0:03:19,NA:NA:NA,199.4,199387,1.0,8,10/14/2023,10:24:21,31.891813,-102.329033,2837.19,864.78,0.136,0.00,194,16.29,61.31,18.35,65.02,17.99,64.38,13.40,0.91,2564.72,781.73,-0.30,-0.09,38.75,40.06,-29.56,1.25,0.80,9.22,-0.00,0.00,0.00,6.31,-4.31,7.62,
0:03:20,NA:NA:NA,200.4,200387,1.0,8,10/14/2023,10:24:22,31.891815,-102.329033,2837.73,864.94,0.325,0.00,194,16.33,61.39,18.35,65.02,18.03,64.45,13.40,0.91,2562.95,781.19,-1.77,-0.54,37.56,40.88,-30.00,1.31,0.83,9.18,0.00,-0.01,0.00,6.31,-4.31,7.62,
0:03:21,NA:NA:NA,201.4,201387,1.0,8,10/14/2023,10:24:23,31.891813,-102.329033,2836.50,864.56,0.142,0.00,194,16.42,61.55,18.37,65.06,18.04,64.47,13.40,0.91,2565.90,782.09,2.95,0.90,38.75,40.06,-29.25,1.28,0.90,9.19,0.00,-0.00,-0.00,6.25,-4.44,7.62,
0:03:22,NA:NA:NA,202.4,202387,1.0,8,10/14/2023,10:24:24,31.891813,-102.329041,2836.70,864.62,0.496,0.00,194,16.44,61.59,18.41,65.14,18.08,64.54,13.40,0.91,2564.72,781.73,-1.18,-0.36,22.00,24.06,-17.88,1.33,0.92,9.24,0.00,0.00,0.01,6.25,-4.88,7.94,
0:03:23,NA:NA:NA,203.4,203387,1.0,8,10/14/2023,10:24:25,31.891815,-102.329048,2837.10,864.75,0.585,0.00,194,16.44,61.59,18.39,65.10,18.12,64.62,13.40,0.91,2563.54,781.37,-1.18,-0.36,22.38,24.06,-18.19,1.36,0.92,9.21,-0.00,0.00,-0.00,6.31,-5.12,8.06,
0:03:24,NA:NA:NA,204.4,204387,1.0,8,10/14/2023,10:24:26,31.891817,-102.329048,2836.88,864.68,0.800,0.00,194,16.53,61.75,18.39,65.10,18.16,64.69,13.40,0.91,2565.02,781.82,1.48,0.45,23.06,23.38,-18.19,1.38,0.94,9.18,0.00,0.00,-0.00,6.31,-5.12,8.06,
0:03:25,NA:NA:NA,205.4,205387,1.0,8,10/14/2023,10:24:27,31.891815,-102.329041,2835.57,864.28,0.476,0.00,194,16.46,61.63,18.41,65.14,18.19,64.74,13.40,0.91,2565.61,782.00,0.59,0.18,22.69,24.00,-18.69,1.43,1.01,9.17,0.00,0.00,-0.00,6.25,-5.50,8.25,
0:03:26,NA:NA:NA,206.4,206387,1.0,8,10/14/2023,10:24:28,31.891817,-102.329041,2836.90,864.69,0.251,0.00,194,16.42,61.55,18.39,65.10,18.23,64.81,13.40,0.91,2565.31,781.91,-0.30,-0.09,22.38,23.69,-17.56,1.42,1.02,9.17,0.00,0.00,0.00,6.25,-5.50,8.25,
0:03:27,NA:NA:NA,207.4,207387,1.0,8,10/14/2023,10:24:29,31.891819,-102.329048,2837.19,864.78,0.499,0.00,194,16.31,61.35,18.46,65.22,18.27,64.89,13.40,0.91,2564.43,781.64,-0.88,-0.27,22.69,23.88,-18.69,0.62,1.66,12.75,-1.38,1.14,0.16,6.00,-3.69,6.81,
0:03:28,NA:NA:NA,208.4,208387,1.0,8,10/14/2023,10:24:30,31.891817,-102.329048,2836.60,864.60,0.168,0.00,194,16.44,61.59,18.52,65.34,18.30,64.94,13.40,0.91,2565.90,782.09,1.47,0.45,25.00,26.56,-18.06,0.81,0.29,9.25,-0.00,0.00,0.00,5.94,-1.56,5.06,
0:03:29,NA:NA:NA,209.4,209387,1.0,8,10/14/2023,10:24:31,31.891817,-102.329048,2836.16,864.46,1.735,0.00,194,16.53,61.75,18.63,65.53,18.31,64.96,13.40,0.91,2558.53,779.84,-7.37,-2.25,24.56,34.88,-21.25,0.92,-2.91,6.33,-0.55,-0.45,1.70,354.12,19.12,3.56,
0:03:30,NA:NA:NA,210.4,210387,1.0,8,10/14/2023,10:24:32,31.891817,-102.329063,2835.51,864.26,0.735,0.00,194,16.59,61.87,18.70,65.65,18.27,64.89,13.40,0.91,2553.82,778.40,-4.71,-1.44,46.38,5.75,-13.38,-4.88,-4.53,4.55,-1.42,-0.09,-0.35,271.31,36.56,-36.75,
0:03:31,NA:NA:NA,211.4,211387,1.0,8,10/14/2023,10:24:33,31.891817,-102.329063,2833.10,863.53,0.111,0.00,194,16.79,62.22,18.91,66.05,18.29,64.92,13.41,0.91,2538.79,773.82,-15.03,-4.58,34.50,33.25,5.19,-2.25,-8.68,-0.22,-0.15,0.57,-1.13,277.88,88.19,-9.88,
0:03:32,NA:NA:NA,212.4,212387,1.0,8,10/14/2023,10:24:34,31.891819,-102.329056,2833.28,863.58,0.739,0.00,194,16.90,62.42,19.05,66.28,18.27,64.89,13.40,0.91,2558.83,779.93,20.04,6.11,45.38,12.06,-12.69,-4.98,-3.29,5.88,1.67,-0.40,0.17,247.62,46.69,-34.62,
0:03:33,NA:NA:NA,213.4,213387,1.0,8,10/14/2023,10:24:35,31.891821,-102.329056,2832.96,863.48,0.431,0.00,194,16.94,62.50,19.22,66.60,18.29,64.92,13.41,0.91,2539.38,774.00,-19.45,-5.93,26.38,17.06,-35.19,-3.39,-0.80,8.63,0.98,-0.41,-1.57,307.00,3.19,0.00,
0:03:34,NA:NA:NA,214.4,214387,1.0,8,10/14/2023,10:24:36,31.891821,-102.329048,2831.45,863.03,0.393,0.00,194,16.90,62.42,19.26,66.68,18.26,64.87,13.40,0.91,2570.92,783.62,31.53,9.61,19.06,16.00,-40.38,0.06,0.15,9.34,0.00,-0.00,-0.00,310.19,-1.69,1.81,
0:03:35,NA:NA:NA,215.4,215387,1.0,8,10/14/2023,10:24:37,31.891817,-102.329048,2833.69,863.71,0.313,0.00,194,16.90,62.42,19.24,66.64,18.30,64.94,13.40,0.91,2563.84,781.46,-7.08,-2.16,18.00,16.75,-40.00,0.03,0.19,9.33,-0.00,0.00,0.00,310.75,-1.38,1.06,
0:03:36,NA:NA:NA,216.4,216387,1.0,8,10/14/2023,10:24:38,31.891817,-102.329048,2836.43,864.54,0.807,0.00,194,16.99,62.58,19.37,66.87,18.32,64.98,13.40,0.91,2563.84,781.46,0.00,0.00,18.38,16.75,-41.50,0.05,0.35,9.31,0.03,-0.01,0.00,310.69,-1.69,1.06,
0:03:37,NA:NA:NA,217.4,217387,1.0,8,10/14/2023,10:24:39,31.891823,-102.329041,2839.88,865.60,0.144,0.00,194,16.86,62.34,19.22,66.60,18.36,65.05,13.40,0.91,2562.95,781.19,-0.88,-0.27,18.38,16.38,-41.19,0.11,0.25,9.34,-0.00,-0.01,0.00,310.62,-1.81,1.12,
0:03:38,NA:NA:NA,218.4,218387,1.0,8,10/14/2023,10:24:40,31.891829,-102.329041,2840.34,865.73,0.133,0.00,194,16.83,62.30,19.29,66.72,18.38,65.08,13.40,0.91,2562.66,781.10,-0.29,-0.09,17.56,16.00,-40.06,0.10,0.26,9.37,-0.01,-0.00,0.00,310.62,-1.81,1.12,
0:03:39,NA:NA:NA,219.4,219387,1.0,7,10/14/2023,10:24:41,31.891829,-102.329041,2839.28,865.41,0.159,0.00,202,16.75,62.14,19.26,66.68,18.39,65.10,13.40,0.91,2563.54,781.37,0.88,0.27,18.38,17.06,-41.19,0.09,0.37,9.31,-0.00,0.00,0.00,310.62,-1.81,1.12,
0:03:40,NA:NA:NA,220.4,220387,1.0,8,10/14/2023,10:24:42,31.891827,-102.329041,2841.84,866.19,0.329,0.00,194,16.77,62.18,19.40,66.91,18.41,65.14,13.40,0.91,2562.07,780.92,-1.47,-0.45,18.38,16.00,-41.50,0.14,0.34,9.33,0.00,-0.00,-0.00,310.62,-1.81,1.12,
0:03:41,NA:NA:NA,221.4,221387,1.0,8,10/14/2023,10:24:43,31.891829,-102.329041,2841.63,866.13,0.176,0.00,194,16.81,62.26,19.48,67.07,18.43,65.17,13.40,0.91,2562.36,781.01,0.29,0.09,18.38,15.56,-40.75,0.22,0.30,9.35,-0.00,-0.01,0.00,310.75,-1.81,1.25,
0:03:42,NA:NA:NA,222.4,222387,1.0,8,10/14/2023,10:24:44,31.891829,-102.329041,2839.84,865.58,0.025,0.00,194,16.86,62.34,19.53,67.15,18.47,65.25,13.40,0.91,2562.07,780.92,-0.29,-0.09,18.38,15.56,-40.75,0.21,0.29,9.37,0.00,0.00,0.00,310.75,-1.81,1.06,
0:03:43,NA:NA:NA,223.4,223387,1.0,8,10/14/2023,10:24:45,31.891829,-102.329033,2840.70,865.84,0.399,0.00,194,16.99,62.58,19.68,67.43,18.50,65.30,13.40,0.91,2563.54,781.37,1.47,0.45,18.00,16.00,-40.50,0.24,0.34,9.33,0.01,-0.01,-0.00,310.75,-1.81,1.06,
0:03:44,NA:NA:NA,224.4,224387,1.0,8,10/14/2023,10:24:46,31.891827,-102.329033,2840.94,865.92,0.664,0.00,194,17.05,62.70,19.72,67.50,18.46,65.23,13.40,0.91,2564.72,781.73,1.18,0.36,18.38,15.56,-41.19,0.21,0.29,9.37,0.00,-0.00,0.00,310.75,-1.81,1.06,
0:03:45,NA:NA:NA,225.4,225387,1.0,7,10/14/2023,10:24:47,31.891823,-102.329033,2840.02,865.64,0.414,0.00,202,17.16,62.89,19.66,67.39,18.47,65.25,13.40,0.91,2562.66,781.10,-2.06,-0.63,17.25,15.25,-41.19,0.19,0.30,9.36,0.00,-0.00,0.00,310.75,-1.81,1.06,
0:03:46,NA:NA:NA,226.4,226387,1.0,8,10/14/2023,10:24:48,31.891823,-102.329033,2841.05,865.95,0.305,0.00,194,17.25,63.05,19.83,67.70,18.49,65.28,13.40,0.91,2562.66,781.10,0.00,0.00,18.00,15.56,-40.75,0.22,0.31,9.34,-0.00,0.00,0.00,310.75,-1.81,1.06,
0:03:47,NA:NA:NA,227.4,227387,1.0,8,10/14/2023,10:24:49,31.891825,-102.329033,2841.42,866.07,0.116,0.00,194,17.21,62.97,19.88,67.78,18.50,65.30,13.40,0.91,2563.54,781.37,0.88,0.27,17.00,15.56,-41.19,0.23,0.30,9.33,0.01,0.00,0.00,310.75,-1.81,1.06,
0:03:48,NA:NA:NA,228.4,228387,1.0,8,10/14/2023,10:24:50,31.891825,-102.329033,2840.77,865.87,0.391,0.00,194,17.23,63.01,19.83,67.70,18.50,65.30,13.40,0.91,2565.31,781.91,1.77,0.54,18.00,15.56,-41.19,0.19,0.26,9.37,-0.00,-0.00,0.00,310.75,-1.81,1.06,
0:03:49,NA:NA:NA,229.4,229387,1.0,8,10/14/2023,10:24:51,31.891829,-102.329033,2843.33,866.65,0.150,0.00,194,17.21,62.97,19.92,67.86,18.49,65.28,13.40,0.91,2563.25,781.28,-2.06,-0.63,18.00,15.56,-40.06,0.25,0.23,9.36,0.00,0.00,0.00,310.75,-1.81,1.06,
0:03:50,NA:NA:NA,230.4,230387,1.0,8,10/14/2023,10:24:52,31.891832,-102.329025,2844.16,866.90,0.309,0.00,194,17.23,63.01,19.94,67.90,18.48,65.26,13.40,0.91,2565.31,781.91,2.06,0.63,18.38,15.25,-40.50,0.23,0.30,9.37,0.00,-0.00,-0.00,310.75,-1.81,1.06,
0:03:51,NA:NA:NA,231.4,231387,1.0,8,10/14/2023,10:24:53,31.891838,-102.329025,2846.51,867.62,0.352,0.00,194,17.23,63.01,19.92,67.86,18.46,65.23,13.40,0.91,2564.43,781.64,-0.88,-0.27,18.00,15.56,-40.50,0.24,0.29,9.33,0.00,0.01,0.00,310.75,-1.88,1.06,
0:03:52,NA:NA:NA,232.4,232387,1.0,8,10/14/2023,10:24:54,31.891838,-102.329033,2845.33,867.26,0.105,0.00,194,17.19,62.93,19.79,67.62,18.46,65.23,13.40,0.91,2565.02,781.82,0.59,0.18,18.00,17.06,-40.75,0.23,0.28,9.36,0.00,0.00,-0.00,310.75,-1.88,1.00,
0:03:53,NA:NA:NA,233.4,233387,1.0,7,10/14/2023,10:24:55,31.891836,-102.329025,2844.31,866.95,0.175,0.00,202,17.16,62.89,19.88,67.78,18.47,65.25,13.40,0.91,2563.54,781.37,-1.48,-0.45,18.00,16.75,-41.56,0.23,0.27,9.33,0.00,-0.01,0.00,310.75,-1.88,1.00,
0:03:54,NA:NA:NA,234.4,234387,1.0,7,10/14/2023,10:24:56,31.891836,-102.329025,2844.46,866.99,0.045,0.00,202,17.16,62.89,19.90,67.82,18.52,65.34,13.40,0.91,2562.66,781.10,-0.88,-0.27,18.38,16.00,-41.19,0.16,0.26,9.30,0.00,0.01,-0.00,310.75,-1.69,0.44,
0:03:55,NA:NA:NA,235.4,235387,1.0,7,10/14/2023,10:24:57,31.891838,-102.329025,2846.03,867.47,0.323,0.00,202,17.21,62.97,19.92,67.86,18.57,65.43,13.40,0.91,2563.54,781.37,0.88,0.27,19.06,13.75,-41.19,0.90,1.66,10.16,0.16,0.67,1.01,307.25,-4.56,0.38,
0:03:56,NA:NA:NA,236.4,236387,1.0,8,10/14/2023,10:24:58,31.891836,-102.329025,2846.23,867.53,0.295,0.00,193,17.16,62.89,19.94,67.90,18.61,65.50,13.41,0.91,2548.81,776.88,-14.73,-4.49,41.25,-15.00,-18.25,-6.66,-0.56,6.11,-1.23,1.40,0.63,221.62,5.44,-46.44,
0:03:57,NA:NA:NA,237.4,237387,1.0,8,10/14/2023,10:24:59,31.891834,-102.329018,2846.43,867.59,0.747,0.00,193,17.01,62.62,20.03,68.06,18.52,65.34,13.41,0.91,2537.32,773.37,-11.49,-3.50,26.06,-39.38,-10.50,-9.29,5.06,2.40,0.92,-0.24,0.70,154.38,-58.56,-60.56,
0:03:58,NA:NA:NA,238.4,238387,1.0,7,10/14/2023,10:25:0,31.891832,-102.329010,2846.62,867.65,2.167,0.00,202,17.05,62.70,19.97,67.94,18.47,65.25,13.41,0.91,2549.99,777.24,12.67,3.86,12.00,-41.69,-18.00,-6.64,6.05,3.75,0.67,0.53,-0.36,151.81,-42.62,-40.38,
0:03:59,NA:NA:NA,239.4,239387,1.0,6,10/14/2023,10:25:1,31.891827,-102.329002,2848.21,868.13,0.539,0.00,206,17.01,62.62,19.59,67.27,18.43,65.17,13.41,0.91,2539.97,774.18,-10.02,-3.05,-7.88,-45.00,-8.19,-5.68,10.97,2.74,-0.45,-0.31,1.24,130.12,-72.44,-18.00,
0:04:00,NA:NA:NA,240.4,240387,1.0,6,10/14/2023,10:25:2,31.891829,-102.329002,2849.01,868.38,0.106,0.00,206,17.12,62.81,19.40,66.91,18.40,65.12,13.41,0.91,2535.26,772.75,-4.72,-1.44,-14.38,-43.00,13.75,-2.66,9.90,-1.22,-0.00,-0.00,0.00,134.69,-92.12,-14.12,
0:04:01,NA:NA:NA,241.4,241387,1.0,7,10/14/2023,10:25:3,31.891830,-102.329002,2847.88,868.03,0.729,0.00,197,17.23,63.01,19.07,66.32,18.39,65.10,13.41,0.91,2534.08,772.39,-1.18,-0.36,-15.88,-42.69,13.38,-2.54,9.47,-1.15,0.00,0.00,0.00,129.06,-95.62,-14.69,
0:04:02,NA:NA:NA,242.4,242387,1.0,7,10/14/2023,10:25:4,31.891836,-102.329010,2848.38,868.19,0.492,0.00,197,17.32,63.17,18.85,65.93,18.38,65.08,13.41,0.91,2535.55,772.84,1.47,0.45,-13.69,-43.25,12.25,-2.53,9.47,-1.16,-0.00,0.00,-0.00,126.94,-96.19,-14.75,
0:04:03,NA:NA:NA,243.4,243387,1.0,8,10/14/2023,10:25:5,31.891842,-102.329010,2849.23,868.44,0.244,0.00,193,17.29,63.13,18.67,65.61,18.38,65.08,13.41,0.91,2535.55,772.84,0.00,0.00,-14.06,-43.25,12.25,-2.53,9.43,-1.11,-0.00,0.00,0.00,127.00,-96.31,-14.81,
0:04:04,NA:NA:NA,244.4,244387,1.0,8,10/14/2023,10:25:6,31.891844,-102.329018,2850.54,868.85,0.248,0.00,193,17.38,63.29,18.39,65.10,18.37,65.07,13.41,0.91,2535.26,772.75,-0.30,-0.09,-14.75,-44.06,13.38,-2.52,9.42,-1.20,0.00,0.00,0.00,127.00,-96.31,-14.81,
0:04:05,NA:NA:NA,245.4,245387,1.0,8,10/14/2023,10:25:7,31.891844,-102.329018,2850.81,868.93,0.145,0.00,193,17.45,63.41,18.28,64.90,18.35,65.03,13.41,0.91,2534.67,772.57,-0.59,-0.18,-14.75,-42.69,13.75,-2.52,9.43,-1.10,0.00,0.00,0.00,127.00,-96.38,-14.81,
0:04:06,NA:NA:NA,246.4,246387,1.0,8,10/14/2023,10:25:8,31.891844,-102.329018,2853.77,869.83,0.601,0.00,193,17.49,63.49,18.19,64.75,18.34,65.01,13.41,0.91,2535.26,772.75,0.59,0.18,-14.75,-43.00,12.69,-2.52,9.43,-1.16,-0.00,0.00,-0.00,127.06,-96.50,-14.81,
0:04:07,NA:NA:NA,247.4,247387,1.0,8,10/14/2023,10:25:9,31.891844,-102.329018,2855.24,870.28,1.027,0.00,193,17.51,63.52,18.04,64.47,18.33,64.99,13.41,0.91,2537.61,773.46,2.36,0.72,-14.06,-40.38,18.25,0.11,8.28,-2.95,0.33,-2.26,-0.24,143.69,-99.50,-13.00,
0:04:08,NA:NA:NA,248.4,248387,1.0,8,10/14/2023,10:25:10,31.891850,-102.329025,2856.07,870.53,0.561,0.00,193,17.56,63.60,17.80,64.04,18.33,64.99,13.41,0.91,2536.43,773.11,-1.18,-0.36,-10.00,-41.50,23.50,-2.46,9.40,-1.64,0.00,0.00,0.00,147.31,-99.19,-14.69,
0:04:09,NA:NA:NA,249.4,249387,1.0,7,10/14/2023,10:25:11,31.891855,-102.329025,2853.55,869.76,0.885,0.00,227,17.56,63.60,17.62,63.72,18.32,64.98,13.41,0.91,2535.55,772.84,-0.88,-0.27,-10.00,-40.00,22.75,-2.48,9.41,-1.53,-0.00,0.00,-0.00,147.00,-99.25,-14.69,
0:04:10,NA:NA:NA,250.4,250387,1.0,7,10/14/2023,10:25:12,31.891853,-102.329025,2854.85,870.16,0.582,0.00,227,17.60,63.68,17.56,63.60,18.31,64.96,13.41,0.91,2535.55,772.84,0.00,0.00,-9.56,-39.69,22.75,-2.52,9.40,-1.57,0.00,-0.00,0.00,147.00,-99.25,-14.69,
0:04:11,NA:NA:NA,251.4,251387,1.0,8,10/14/2023,10:25:13,31.891846,-102.329025,2853.14,869.64,0.231,0.00,193,17.51,63.52,17.51,63.52,18.30,64.94,13.41,0.91,2535.26,772.75,-0.30,-0.09,-10.38,-40.38,23.19,-2.49,9.41,-1.61,0.00,-0.00,0.00,147.00,-99.25,-14.69,
0:04:12,NA:NA:NA,252.4,252387,1.0,8,10/14/2023,10:25:14,31.891846,-102.329025,2855.18,870.26,1.033,0.00,193,17.58,63.64,17.54,63.56,18.29,64.92,13.41,0.91,2535.26,772.75,0.00,0.00,-9.25,-40.00,23.19,-2.47,9.39,-1.59,0.00,0.00,-0.00,147.00,-99.25,-14.69,
0:04:13,NA:NA:NA,253.4,253387,1.0,8,10/14/2023,10:25:15,31.891855,-102.329033,2856.15,870.56,0.415,0.00,193,17.58,63.64,17.49,63.49,18.28,64.90,13.41,0.91,2534.96,772.66,-0.29,-0.09,-10.75,-40.38,23.19,-2.47,9.39,-1.62,0.00,0.00,0.00,147.00,-99.25,-14.69,
0:04:14,NA:NA:NA,254.4,254387,1.0,8,10/14/2023,10:25:16,31.891863,-102.329025,2859.48,871.57,0.233,0.00,193,17.58,63.64,17.45,63.41,18.28,64.90,13.41,0.91,2535.55,772.84,0.59,0.18,-9.56,-39.69,23.19,-2.47,9.37,-1.69,-0.00,0.00,-0.00,147.00,-99.25,-14.69,
0:04:15,NA:NA:NA,255.4,255387,1.0,8,10/14/2023,10:25:17,31.891867,-102.329025,2862.43,872.47,0.476,0.00,193,17.56,63.60,17.40,63.33,18.28,64.90,13.41,0.91,2534.37,772.48,-1.18,-0.36,-8.88,-40.00,23.19,-2.48,9.41,-1.58,0.00,0.00,0.00,147.00,-99.25,-14.69,
0:04:16,NA:NA:NA,256.4,256387,1.0,8,10/14/2023,10:25:18,31.891869,-102.329033,2862.21,872.40,0.724,0.00,193,17.58,63.64,17.47,63.45,18.27,64.89,13.41,0.91,2536.14,773.02,1.77,0.54,-10.00,-40.75,22.75,-2.51,9.43,-1.59,0.00,0.00,0.00,147.00,-99.25,-14.69,
0:04:17,NA:NA:NA,257.4,257387,1.0,8,10/14/2023,10:25:19,31.891874,-102.329033,2863.26,872.72,0.432,0.00,193,17.62,63.72,17.29,63.13,18.26,64.87,13.41,0.91,2534.37,772.48,-1.77,-0.54,-11.06,-40.38,21.56,-2.44,9.43,-1.71,-0.06,0.09,-0.03,145.31,-99.00,-14.75,
0:04:18,NA:NA:NA,258.4,258387,1.0,8,10/14/2023,10:25:20,31.891874,-102.329033,2865.23,873.32,0.491,0.00,193,17.60,63.68,17.34,63.21,18.26,64.87,13.41,0.91,2535.26,772.75,0.88,0.27,-9.50,-41.50,19.25,-2.74,9.33,-1.23,0.02,0.01,0.03,139.56,-97.81,-15.50,
0:04:19,NA:NA:NA,259.4,259387,1.0,8,10/14/2023,10:25:21,31.891876,-102.329033,2866.43,873.69,0.250,0.00,193,17.62,63.72,17.32,63.17,18.26,64.87,13.41,0.91,2535.26,772.75,0.00,0.00,-12.25,-41.19,19.25,-2.43,9.44,-1.59,0.12,0.05,0.11,138.44,-98.94,-14.50,
0:04:20,NA:NA:NA,260.4,260387,1.0,8,10/14/2023,10:25:22,31.891876,-102.329025,2866.27,873.64,0.272,0.00,193,17.60,63.68,17.27,63.09,18.25,64.85,13.41,0.91,2535.55,772.84,0.30,0.09,-10.38,-41.88,19.25,-2.80,9.36,-1.50,0.02,0.02,0.02,139.50,-97.75,-15.50,
0:04:21,NA:NA:NA,261.4,261387,1.0,8,10/14/2023,10:25:23,31.891874,-102.329025,2868.30,874.26,0.034,0.00,193,17.60,63.68,17.16,62.89,18.25,64.85,13.41,0.91,2534.96,772.66,-0.59,-0.18,-11.06,-40.38,18.88,-2.50,9.47,-1.55,0.00,0.00,0.00,138.94,-98.38,-15.06,
0:04:22,NA:NA:NA,262.4,262387,1.0,8,10/14/2023,10:25:24,31.891872,-102.329033,2867.93,874.14,0.380,0.00,193,17.62,63.72,17.14,62.85,18.25,64.85,13.41,0.91,2535.55,772.84,0.59,0.18,-10.75,-40.75,18.56,-2.71,9.37,-1.29,0.00,0.00,-0.00,139.50,-97.75,-15.56,
