1.492943286895752:Booting ...
1.493236780166626:initializing I/O
1.5165293216705322:initializing DRA818
3.771540641784668:Init - ok
3.9221529960632324:$GPRMC,190237.00,V,,,,,,,140523,,,N*72
3.922480821609497:$GPVTG,,,,,,,,,N*30
3.988831043243408:$GPGGA,190237.00,,,,,0,00,99.99,,,,,,*68
4.022249698638916:$GPGSA,A,1,,,,,,,,,,,,,99.99,99.99,99.99*30
4.088549852371216:$GPGSV,3,1,12,03,03,035,,04,09,064,,05,08,204,,06,65,026,*7B
4.1553730964660645:$GPGSV,3,2,12,09,14,095,,11,58,270,20,12,44,301,,17,34,103,*73
4.221890687942505:$GPGSV,3,3,12,19,56,087,09,20,34,201,25,24,02,251,,25,14,320,*77
4.242268085479736:$GPGLL,,,,,190237.00,V,N*44
4.946249485015869:$GPRMC,190238.00,V,,,,,,,140523,,,N*7D
4.946460485458374:$GPVTG,,,,,,,,,N*30
5.012974977493286:$GPGGA,190238.00,,,,,0,00,99.99,,,,,,*67
5.046470642089844:$GPGSA,A,1,,,,,,,,,,,,,99.99,99.99,99.99*30
5.113134145736694:$GPGSV,3,1,12,03,03,035,,04,09,064,,05,08,204,,06,65,026,30*78
5.179733753204346:$GPGSV,3,2,12,09,14,095,,11,58,270,21,12,44,301,22,17,34,103,25*75
5.246432304382324:$GPGSV,3,3,12,19,56,087,,20,34,201,26,24,02,251,,25,14,320,*7D
5.270914554595947:$GPGLL,,,,,190238.00,V,N*4B
5.94032883644104:$GPRMC,190239.00,V,,,,,,,140523,,,N*7C
5.9405176639556885:$GPVTG,,,,,,,,,N*30
6.007134199142456:$GPGGA,190239.00,,,,,0,00,99.99,,,,,,*66
6.040693283081055:$GPGSA,A,1,,,,,,,,,,,,,99.99,99.99,99.99*30
6.107039928436279:$GPGSV,3,1,12,03,03,035,,04,09,064,21,05,08,204,,06,65,026,31*7A
6.173748016357422:$GPGSV,3,2,12,09,14,095,,11,58,270,20,12,44,301,22,17,34,103,25*74
6.24057674407959:$GPGSV,3,3,12,19,56,087,,20,34,201,25,24,02,251,,25,14,320,*7E
6.267162322998047:$GPGLL,,,,,190239.00,V,N*4A
6.478159189224243:$GPRMC,190239.50,V,,,,,,,140523,,,N*79
6.4784791469573975:$GPVTG,,,,,,,,,N*30
6.544648885726929:$GPGGA,190239.50,,,,,0,04,4.41,,,,,,*56
6.57806134223938:$GPGSA,A,1,06,19,17,20,,,,,,,,,10.20,4.41,9.20*33
6.644886016845703:$GPGSV,3,1,12,03,03,035,,04,09,064,20,05,08,204,,06,65,026,30*7A
6.744499921798706:$GPGSV,3,2,12,09,14,095,23,11,58,270,20,12,44,301,23,17,34,103,25*74
6.811089754104614:$GPGSV,3,3,12,19,56,087,34,20,34,201,25,24,02,251,,25,14,320,*79
6.8113813400268555:$GPGLL,,,,,190239.50,V,N*4F
6.931965112686157:$GPRMC,190240.00,V,,,,,,,140523,,,N*72
6.932279825210571:$GPVTG,,,,,,,,,N*30
6.998467922210693:$GPGGA,190240.00,,,,,0,05,1.77,,,,,,*5C
7.031949281692505:$GPGSA,A,1,06,19,12,17,20,,,,,,,,5.04,1.77,4.72*08
7.098414897918701:$GPGSV,3,1,12,03,03,035,,04,09,064,21,05,08,204,,06,65,026,31*7A
7.198376178741455:$GPGSV,3,2,12,09,14,095,24,11,58,270,22,12,44,301,24,17,34,103,26*75
7.264950752258301:$GPGSV,3,3,12,19,56,087,34,20,34,201,25,24,02,251,,25,14,320,*79
7.268620491027832:$GPGLL,,,,,190240.00,V,N*44
7.931527376174927:$GPRMC,190241.00,V,,,,,,,140523,,,N*73
7.9318530559539795:$GPVTG,,,,,,,,,N*30
7.998310327529907:$GPGGA,190241.00,,,,,0,05,1.77,,,,,,*5D
8.031708002090454:$GPGSA,A,1,06,19,12,17,20,,,,,,,,5.04,1.77,4.72*08
8.098288297653198:$GPGSV,3,1,12,03,03,035,,04,09,064,20,05,08,204,,06,65,026,32*78
8.19805359840393:$GPGSV,3,2,12,09,14,095,23,11,58,270,23,12,44,301,24,17,34,103,26*73
8.264582872390747:$GPGSV,3,3,12,19,56,087,33,20,34,201,25,24,02,251,,25,14,320,*7E
8.268268823623657:$GPGLL,,,,,190241.00,V,N*45
8.930204153060913:$GPRMC,190242.00,V,,,,,,,140523,,,N*70
8.930607795715332:$GPVTG,,,,,,,,,N*30
8.996784448623657:$GPGGA,190242.00,,,,,0,05,1.77,,,,,,*5E
9.030301570892334:$GPGSA,A,1,06,19,12,17,20,,,,,,,,5.04,1.77,4.72*08
9.096920013427734:$GPGSV,3,1,12,03,03,035,,04,09,064,19,05,08,204,,06,65,026,31*71
9.19658088684082:$GPGSV,3,2,12,09,14,095,22,11,58,270,20,12,44,301,23,17,34,103,25*75
9.263323783874512:$GPGSV,3,3,12,19,56,087,33,20,34,201,25,24,02,251,,25,14,320,*7E
9.266954183578491:$GPGLL,,,,,190242.00,V,N*46
9.967556238174438:$GPRMC,190243.00,A,3938.29849,N,07957.12397,W,0.567,,140523,,,A*67
10.001113653182983:$GPVTG,,T,,M,0.567,N,1.049,K,A*2B
10.067501306533813:$GPGGA,190243.00,3938.29849,N,07957.12397,W,1,05,1.77,269.9,M,-33.9,M,,*6A
10.134182453155518:$GPGSA,A,3,06,19,12,17,20,,,,,,,,5.04,1.77,4.72*0A
10.200681447982788:$GPGSV,3,1,12,03,03,035,,04,09,064,19,05,08,204,,06,65,026,30*70
10.267340898513794:$GPGSV,3,2,12,09,14,095,21,11,58,270,20,12,44,301,22,17,34,103,25*77
10.333995342254639:$GPGSV,3,3,12,19,56,087,33,20,34,201,26,24,02,251,,25,14,320,*7D
10.375294923782349:$GPGLL,3938.29849,N,07957.12397,W,190243.00,A,A*7B
10.966031074523926:$GPRMC,190244.00,A,3938.29669,N,07957.12489,W,0.161,,140523,,,A*66
10.999439239501953:$GPVTG,,T,,M,0.161,N,0.299,K,A*27
11.066228866577148:$GPGGA,190244.00,3938.29669,N,07957.12489,W,1,05,1.77,278.9,M,-33.9,M,,*69
11.132618188858032:$GPGSA,A,3,06,19,12,17,20,,,,,,,,5.04,1.77,4.72*0A
11.199281454086304:$GPGSV,3,1,12,03,03,035,,04,09,064,19,05,08,204,,06,65,026,31*71
11.265947818756104:$GPGSV,3,2,12,09,14,095,21,11,58,270,19,12,44,301,22,17,34,103,24*7C
11.332638263702393:$GPGSV,3,3,12,19,56,087,33,20,34,201,26,24,02,251,,25,14,320,*7D
11.373517036437988:$GPGLL,3938.29669,N,07957.12489,W,190244.00,A,A*78
11.970218420028687:$GPRMC,190245.00,A,3938.29544,N,07957.12554,W,0.170,,140523,,,A*6A
12.003459453582764:$GPVTG,,T,,M,0.170,N,0.315,K,A*22
12.0701322555542:$GPGGA,190245.00,3938.29544,N,07957.12554,W,1,05,1.77,284.3,M,-33.9,M,,*6C
12.136824607849121:$GPGSA,A,3,06,19,12,17,20,,,,,,,,5.04,1.77,4.72*0A
12.203545093536377:$GPGSV,3,1,12,03,03,035,,04,09,064,19,05,08,204,20,06,65,026,31*73
12.26993703842163:$GPGSV,3,2,12,09,14,095,21,11,58,270,20,12,44,301,21,17,34,103,24*75
12.336633920669556:$GPGSV,3,3,12,19,56,087,34,20,34,201,26,24,02,251,,25,14,320,20*78
12.382051229476929:$GPGLL,3938.29544,N,07957.12554,W,190245.00,A,A*74
12.962392091751099:$GPRMC,190246.00,A,3938.29444,N,07957.12625,W,0.195,,140523,,,A*66
12.99563717842102:$GPVTG,,T,,M,0.195,N,0.361,K,A*2A
13.062509298324585:$GPGGA,190246.00,3938.29444,N,07957.12625,W,1,05,1.77,289.5,M,-33.9,M,,*60
13.129006147384644:$GPGSA,A,3,06,19,12,17,20,,,,,,,,5.04,1.77,4.72*0A
13.195647954940796:$GPGSV,3,1,12,03,03,035,,04,09,064,19,05,08,204,,06,65,026,32*72
13.2623610496521:$GPGSV,3,2,12,09,14,095,21,11,58,270,21,12,44,301,21,17,34,103,25*75
13.329030752182007:$GPGSV,3,3,12,19,56,087,33,20,34,201,26,24,02,251,,25,14,320,*7D
13.37006950378418:$GPGLL,3938.29444,N,07957.12625,W,190246.00,A,A*73
13.970243215560913:$GPRMC,190247.00,A,3938.29376,N,07957.12669,W,0.302,,140523,,,A*65
14.003566265106201:$GPVTG,,T,,M,0.302,N,0.560,K,A*21
14.070378541946411:$GPGGA,190247.00,3938.29376,N,07957.12669,W,1,05,1.77,292.1,M,-33.9,M,,*61
14.136883020401001:$GPGSA,A,3,06,19,12,17,20,,,,,,,,5.04,1.77,4.72*0A
14.203467845916748:$GPGSV,3,1,12,03,03,035,,04,09,064,19,05,08,204,14,06,65,026,32*77
14.270015954971313:$GPGSV,3,2,12,09,14,095,21,11,58,270,21,12,44,301,21,17,34,103,24*74
14.336694955825806:$GPGSV,3,3,12,19,56,087,34,20,34,201,26,24,02,251,,25,14,320,*7A
14.379851818084717:$GPGLL,3938.29376,N,07957.12669,W,190247.00,A,A*7C
14.964646577835083:$GPRMC,190248.00,A,3938.29311,N,07957.12703,W,0.123,,140523,,,A*67
14.997939348220825:$GPVTG,,T,,M,0.123,N,0.227,K,A*24
15.064834833145142:$GPGGA,190248.00,3938.29311,N,07957.12703,W,1,05,1.77,294.8,M,-33.9,M,,*6D
15.13123369216919:$GPGSA,A,3,06,19,12,17,20,,,,,,,,5.05,1.77,4.72*0B
15.197944164276123:$GPGSV,3,1,12,03,03,035,,04,09,064,18,05,08,204,10,06,65,026,32*72
15.264687538146973:$GPGSV,3,2,12,09,14,095,21,11,58,270,21,12,44,301,21,17,34,103,25*75
15.331259727478027:$GPGSV,3,3,12,19,56,087,34,20,34,201,26,24,02,251,,25,14,320,*7A
15.37441611289978:$GPGLL,3938.29311,N,07957.12703,W,190248.00,A,A*7F
15.966710090637207:$GPRMC,190249.00,A,3938.29255,N,07957.12735,W,0.136,,140523,,,A*66
16.000022411346436:$GPVTG,,T,,M,0.136,N,0.252,K,A*22
16.06671380996704:$GPGGA,190249.00,3938.29255,N,07957.12735,W,1,05,1.77,297.4,M,-33.9,M,,*67
16.13321614265442:$GPGSA,A,3,06,19,12,17,20,,,,,,,,5.05,1.77,4.73*0A
16.19980502128601:$GPGSV,3,1,12,03,03,035,,04,09,064,19,05,08,204,09,06,65,026,32*7B
16.26646375656128:$GPGSV,3,2,12,09,14,095,20,11,58,270,21,12,44,301,21,17,34,103,25*74
16.333041667938232:$GPGSV,3,3,12,19,56,087,34,20,34,201,26,24,02,251,,25,14,320,*7A
16.376413822174072:$GPGLL,3938.29255,N,07957.12735,W,190249.00,A,A*7A
16.96568250656128:$GPRMC,190250.00,A,3938.29235,N,07957.12752,W,0.248,,140523,,,A*63
16.998895168304443:$GPVTG,,T,,M,0.248,N,0.460,K,A*2F
17.06589698791504:$GPGGA,190250.00,3938.29235,N,07957.12752,W,1,05,1.77,297.7,M,-33.9,M,,*6B
17.132312297821045:$GPGSA,A,3,06,19,12,17,20,,,,,,,,5.05,1.77,4.73*0A
17.19909143447876:$GPGSV,3,1,12,03,03,035,,04,09,064,19,05,08,204,08,06,65,026,32*7A
17.265782833099365:$GPGSV,3,2,12,09,14,095,20,11,58,270,20,12,44,301,21,17,34,103,24*74
17.33241319656372:$GPGSV,3,3,12,19,56,087,34,20,34,201,26,24,02,251,,25,14,320,*7A
17.37550711631775:$GPGLL,3938.29235,N,07957.12752,W,190250.00,A,A*75
17.9710750579834:$GPRMC,190251.00,A,3938.29197,N,07957.12769,W,0.355,,140523,,,A*6C
18.004416465759277:$GPVTG,,T,,M,0.355,N,0.657,K,A*24
18.0713369846344:$GPGGA,190251.00,3938.29197,N,07957.12769,W,1,05,1.77,299.1,M,-33.9,M,,*61
18.13770604133606:$GPGSA,A,3,06,19,12,17,20,,,,,,,,5.05,1.77,4.73*0A
18.204408884048462:$GPGSV,3,1,12,03,03,035,,04,09,064,19,05,08,204,08,06,65,026,32*7A
18.270869255065918:$GPGSV,3,2,12,09,14,095,20,11,58,270,20,12,44,301,21,17,34,103,24*74
18.337590217590332:$GPGSV,3,3,12,19,56,087,34,20,34,201,26,24,02,251,,25,14,320,*7A
18.380897045135498:$GPGLL,3938.29197,N,07957.12769,W,190251.00,A,A*77
18.963331937789917:$GPRMC,190252.00,A,3938.29148,N,07957.12779,W,0.242,,140523,,,A*6B
18.996593713760376:$GPVTG,,T,,M,0.242,N,0.447,K,A*20
19.063475370407104:$GPGGA,190252.00,3938.29148,N,07957.12779,W,1,05,1.77,301.7,M,-33.9,M,,*67
19.129859924316406:$GPGSA,A,3,06,19,12,17,20,,,,,,,,5.05,1.77,4.73*0A
19.196622371673584:$GPGSV,3,1,12,03,03,035,,04,09,064,20,05,08,204,08,06,65,026,32*70
19.263393878936768:$GPGSV,3,2,12,09,14,095,21,11,58,270,19,12,44,301,22,17,34,103,25*7D
19.330055713653564:$GPGSV,3,3,12,19,56,087,35,20,34,201,26,24,02,251,,25,14,320,*7B
19.372968912124634:$GPGLL,3938.29148,N,07957.12779,W,190252.00,A,A*77
19.964818954467773:$GPRMC,190253.00,A,3938.29109,N,07957.12795,W,0.164,,140523,,,A*6A
19.99831986427307:$GPVTG,,T,,M,0.164,N,0.303,K,A*20
20.065086841583252:$GPGGA,190253.00,3938.29109,N,07957.12795,W,1,05,1.77,303.4,M,-33.9,M,,*60
20.13138508796692:$GPGSA,A,3,06,19,12,17,20,,,,,,,,5.05,1.77,4.73*0A
20.19818925857544:$GPGSV,3,1,12,03,03,035,,04,09,064,20,05,08,204,08,06,65,026,33*71
20.26473617553711:$GPGSV,3,2,12,09,14,095,21,11,58,270,19,12,44,301,22,17,34,103,26*7E
20.33152174949646:$GPGSV,3,3,12,19,56,087,35,20,34,201,26,24,02,251,,25,14,320,*7B
20.37473225593567:$GPGLL,3938.29109,N,07957.12795,W,190253.00,A,A*71
20.96306014060974:$GPRMC,190254.00,A,3938.29063,N,07957.12802,W,0.298,,140523,,,A*61
20.996583938598633:$GPVTG,,T,,M,0.298,N,0.553,K,A*23
21.063087224960327:$GPGGA,190254.00,3938.29063,N,07957.12802,W,1,05,1.77,305.3,M,-33.9,M,,*6A
21.129681825637817:$GPGSA,A,3,06,19,12,17,20,,,,,,,,5.05,1.77,4.73*0A
21.196502923965454:$GPGSV,3,1,12,03,03,035,,04,09,064,21,05,08,204,08,06,65,026,33*70
21.263187408447266:$GPGSV,3,2,12,09,14,095,21,11,58,270,21,12,44,301,22,17,34,103,25*76
21.32967519760132:$GPGSV,3,3,12,19,56,087,35,20,34,201,25,24,02,251,,25,14,320,*78
21.37294864654541:$GPGLL,3938.29063,N,07957.12802,W,190254.00,A,A*7A
21.96486258506775:$GPRMC,190255.00,A,3938.29023,N,07957.12809,W,0.166,,140523,,,A*6D
21.99828267097473:$GPVTG,,T,,M,0.166,N,0.307,K,A*26
22.06489324569702:$GPGGA,190255.00,3938.29023,N,07957.12809,W,1,05,1.77,306.9,M,-33.9,M,,*6D
22.13138747215271:$GPGSA,A,3,06,19,12,17,20,,,,,,,,5.05,1.77,4.73*0A
22.19802713394165:$GPGSV,3,1,12,03,03,035,,04,09,064,20,05,08,204,08,06,65,026,32*70
22.264711380004883:$GPGSV,3,2,12,09,14,095,20,11,58,270,22,12,44,301,22,17,34,103,25*74
22.331313848495483:$GPGSV,3,3,12,19,56,087,34,20,34,201,25,24,02,251,,25,14,320,*79
22.37464141845703:$GPGLL,3938.29023,N,07957.12809,W,190255.00,A,A*74
22.962550163269043:$GPRMC,190256.00,A,3938.28993,N,07957.12817,W,0.145,,140523,,,A*63
22.995900630950928:$GPVTG,,T,,M,0.145,N,0.269,K,A*2E
23.062560319900513:$GPGGA,190256.00,3938.28993,N,07957.12817,W,1,05,1.77,308.4,M,-33.9,M,,*61
23.12914228439331:$GPGSA,A,3,06,19,12,17,20,,,,,,,,5.05,1.77,4.73*0A
23.19584584236145:$GPGSV,3,1,12,03,03,035,,04,09,064,20,05,08,204,13,06,65,026,31*79
23.262630462646484:$GPGSV,3,2,12,09,14,095,21,11,58,270,22,12,44,301,22,17,34,103,25*75
23.329275131225586:$GPGSV,3,3,12,19,56,087,34,20,34,201,24,24,02,251,,25,14,320,*78
23.372347831726074:$GPGLL,3938.28993,N,07957.12817,W,190256.00,A,A*7B
23.960413694381714:$GPRMC,190257.00,A,3938.28962,N,07957.12836,W,0.038,,140523,,,A*64
23.993640184402466:$GPVTG,,T,,M,0.038,N,0.071,K,A*2E
24.06046724319458:$GPGGA,190257.00,3938.28962,N,07957.12836,W,1,05,1.77,309.6,M,-33.9,M,,*6E
24.12688159942627:$GPGSA,A,3,06,19,12,17,20,,,,,,,,5.05,1.77,4.73*0A
24.193758249282837:$GPGSV,3,1,12,03,03,035,,04,09,064,19,05,08,204,13,06,65,026,31*73
24.260536193847656:$GPGSV,3,2,12,09,14,095,21,11,58,270,23,12,44,301,23,17,34,103,25*75
24.32723069190979:$GPGSV,3,3,12,19,56,087,34,20,34,201,26,24,02,251,,25,14,320,*7A
24.37030792236328:$GPGLL,3938.28962,N,07957.12836,W,190257.00,A,A*77
24.962198972702026:$GPRMC,190258.00,A,3938.28917,N,07957.12850,W,0.097,,140523,,,A*6C
24.995519399642944:$GPVTG,,T,,M,0.097,N,0.180,K,A*24
25.062227725982666:$GPGGA,190258.00,3938.28917,N,07957.12850,W,1,05,1.77,311.6,M,-33.9,M,,*6A
25.128811836242676:$GPGSA,A,3,06,19,12,17,20,,,,,,,,5.05,1.77,4.73*0A
25.195492267608643:$GPGSV,3,1,12,03,03,035,,04,09,064,20,05,08,204,13,06,65,026,31*79
25.26221227645874:$GPGSV,3,2,12,09,14,095,21,11,58,270,24,12,44,301,24,17,34,103,25*75
25.32887554168701:$GPGSV,3,3,12,19,56,087,34,20,34,201,26,24,02,251,,25,14,320,*7A
25.372033834457397:$GPGLL,3938.28917,N,07957.12850,W,190258.00,A,A*7A
25.96432638168335:$GPRMC,190259.00,A,3938.28878,N,07957.12861,W,0.097,,140523,,,A*67
25.997692823410034:$GPVTG,,T,,M,0.097,N,0.179,K,A*22
26.064494371414185:$GPGGA,190259.00,3938.28878,N,07957.12861,W,1,05,1.77,313.0,M,-33.9,M,,*65
26.130677223205566:$GPGSA,A,3,06,19,12,17,20,,,,,,,,5.05,1.77,4.73*0A
26.19759726524353:$GPGSV,3,1,12,03,03,035,,04,09,064,20,05,08,204,13,06,65,026,30*78
26.264106035232544:$GPGSV,3,2,12,09,14,095,20,11,58,270,25,12,44,301,25,17,34,103,24*75
26.33083152770996:$GPGSV,3,3,12,19,56,087,34,20,34,201,27,24,02,251,,25,14,320,*7B
26.37402582168579:$GPGLL,3938.28878,N,07957.12861,W,190259.00,A,A*71
26.96215271949768:$GPRMC,190300.00,A,3938.28850,N,07957.12874,W,0.034,,140523,,,A*6D
26.995410442352295:$GPVTG,,T,,M,0.034,N,0.063,K,A*21
27.062201499938965:$GPGGA,190300.00,3938.28850,N,07957.12874,W,1,05,1.77,314.1,M,-33.9,M,,*60
27.12877607345581:$GPGSA,A,3,06,19,12,17,20,,,,,,,,5.05,1.77,4.73*0A
