1.4930620193481445:Booting ...
1.4933240413665771:initializing I/O
1.5166096687316895:initializing DRA818
3.7729287147521973:Init - ok
4.280601263046265:$GPRMC,190133.00,A,3938.26093,N,07957.12924,W,0.220,,140523,,,A*65
4.313939094543457:$GPVTG,,T,,M,0.220,N,0.408,K,A*2F
4.380836248397827:$GPGGA,190133.00,3938.26093,N,07957.12924,W,1,05,1.77,411.7,M,-33.9,M,,*6B
4.447299003601074:$GPGSA,A,3,06,19,12,17,20,,,,,,,,5.01,1.77,4.68*04
4.513959169387817:$GPGSV,3,1,12,03,03,035,,04,09,064,18,05,08,204,25,06,65,025,32*77
4.58045768737793:$GPGSV,3,2,12,09,14,096,,11,57,269,21,12,43,301,26,17,34,102,29*7F
4.647136449813843:$GPGSV,3,3,12,19,56,086,20,20,33,201,26,24,03,251,,25,13,320,*7F
4.688436985015869:$GPGLL,3938.26093,N,07957.12924,W,190133.00,A,A*7D
5.27891731262207:$GPRMC,190134.00,A,3938.26194,N,07957.12928,W,0.203,,140523,,,A*69
5.312438488006592:$GPVTG,,T,,M,0.203,N,0.375,K,A*23
5.378840684890747:$GPGGA,190134.00,3938.26194,N,07957.12928,W,1,05,1.77,408.0,M,-33.9,M,,*69
5.445605278015137:$GPGSA,A,3,06,19,12,17,20,,,,,,,,5.01,1.77,4.68*04
5.51230263710022:$GPGSV,3,1,12,03,03,035,,04,09,064,18,05,08,204,25,06,65,025,32*77
5.578840732574463:$GPGSV,3,2,12,09,14,096,,11,57,269,22,12,43,301,26,17,34,102,29*7C
5.645566463470459:$GPGSV,3,3,12,19,56,086,19,20,33,201,27,24,03,251,,25,13,320,*74
5.686786890029907:$GPGLL,3938.26194,N,07957.12928,W,190134.00,A,A*70
6.280437469482422:$GPRMC,190135.00,A,3938.26346,N,07957.12957,W,0.170,,140523,,,A*6A
6.313817739486694:$GPVTG,,T,,M,0.170,N,0.315,K,A*22
6.380493879318237:$GPGGA,190135.00,3938.26346,N,07957.12957,W,1,05,1.77,402.6,M,-33.9,M,,*61
6.447023868560791:$GPGSA,A,3,06,19,12,17,20,,,,,,,,5.01,1.77,4.68*04
6.513720512390137:$GPGSV,3,1,12,03,03,035,,04,09,064,18,05,08,204,25,06,65,025,32*77
6.580188751220703:$GPGSV,3,2,12,09,14,095,,11,57,269,22,12,43,301,26,17,34,102,28*7E
6.646864652633667:$GPGSV,3,3,12,19,56,086,17,20,33,201,27,24,03,251,,25,13,320,*7A
6.6880810260772705:$GPGLL,3938.26346,N,07957.12957,W,190135.00,A,A*74
7.2767815589904785:$GPRMC,190136.00,A,3938.26436,N,07957.12954,W,0.121,,140523,,,A*6E
7.3101372718811035:$GPVTG,,T,,M,0.121,N,0.225,K,A*24
7.3769285678863525:$GPGGA,190136.00,3938.26436,N,07957.12954,W,1,05,1.77,399.4,M,-33.9,M,,*66
7.443384647369385:$GPGSA,A,3,06,19,12,17,20,,,,,,,,5.01,1.77,4.69*05
7.510010242462158:$GPGSV,3,1,12,03,03,035,,04,09,064,18,05,08,204,25,06,65,025,32*77
7.576778173446655:$GPGSV,3,2,12,09,14,095,,11,57,269,21,12,43,301,25,17,34,102,27*71
7.6434245109558105:$GPGSV,3,3,12,19,56,086,14,20,33,201,27,24,03,251,,25,13,320,*79
7.684460401535034:$GPGLL,3938.26436,N,07957.12954,W,190136.00,A,A*74
8.279794216156006:$GPRMC,190137.00,A,3938.26469,N,07957.12959,W,0.129,,140523,,,A*60
8.313291549682617:$GPVTG,,T,,M,0.129,N,0.240,K,A*2F
8.380026578903198:$GPGGA,190137.00,3938.26469,N,07957.12959,W,1,05,1.77,397.4,M,-33.9,M,,*6E
8.446563720703125:$GPGSA,A,3,06,19,12,17,20,,,,,,,,5.01,1.77,4.69*05
8.5131995677948:$GPGSV,3,1,12,03,03,035,,04,09,064,19,05,08,204,26,06,65,025,32*75
8.579697847366333:$GPGSV,3,2,12,09,14,095,,11,57,269,22,12,43,301,25,17,34,102,28*7D
8.646377801895142:$GPGSV,3,3,12,19,56,086,14,20,33,201,28,24,03,251,,25,13,320,*76
8.687591791152954:$GPGLL,3938.26469,N,07957.12959,W,190137.00,A,A*72
9.277046203613281:$GPRMC,190138.00,A,3938.26506,N,07957.12978,W,0.105,,140523,,,A*6A
9.310406923294067:$GPVTG,,T,,M,0.105,N,0.194,K,A*2B
9.377184391021729:$GPGGA,190138.00,3938.26506,N,07957.12978,W,1,05,1.77,397.0,M,-33.9,M,,*6E
9.443636655807495:$GPGSA,A,3,06,19,12,17,20,,,,,,,,5.01,1.77,4.69*05
9.510180234909058:$GPGSV,3,1,12,03,03,035,,04,09,064,19,05,08,204,27,06,65,025,33*75
9.577041387557983:$GPGSV,3,2,12,09,14,095,22,11,57,269,22,12,43,301,26,17,34,102,29*7F
9.643577098846436:$GPGSV,3,3,12,19,56,086,15,20,33,201,29,24,03,251,,25,13,320,*76
9.686820030212402:$GPGLL,3938.26506,N,07957.12978,W,190138.00,A,A*76
10.280891418457031:$GPRMC,190139.00,A,3938.26545,N,07957.12965,W,0.235,,140523,,,A*60
10.314188480377197:$GPVTG,,T,,M,0.235,N,0.435,K,A*25
10.380725860595703:$GPGGA,190139.00,3938.26545,N,07957.12965,W,1,05,1.77,395.8,M,-33.9,M,,*6E
10.447266101837158:$GPGSA,A,3,06,19,12,17,20,,,,,,,,5.01,1.77,4.69*05
10.513972759246826:$GPGSV,3,1,12,03,03,035,,04,09,064,20,05,08,204,27,06,65,025,33*7F
10.580839395523071:$GPGSV,3,2,12,09,14,095,21,11,57,269,21,12,43,301,26,17,34,102,29*7F
10.647469997406006:$GPGSV,3,3,12,19,56,086,16,20,33,201,29,24,03,251,,25,13,320,*75
10.690672159194946:$GPGLL,3938.26545,N,07957.12965,W,190139.00,A,A*7C
11.278815031051636:$GPRMC,190140.00,A,3938.26598,N,07957.12929,W,0.246,,140523,,,A*62
11.312128067016602:$GPVTG,,T,,M,0.246,N,0.456,K,A*24
11.378838777542114:$GPGGA,190140.00,3938.26598,N,07957.12929,W,1,05,1.77,393.2,M,-33.9,M,,*64
11.445381879806519:$GPGSA,A,3,06,19,12,17,20,,,,,,,,5.01,1.77,4.69*05
11.512162923812866:$GPGSV,3,1,12,03,03,035,,04,09,064,20,05,08,204,27,06,65,025,33*7F
11.578716278076172:$GPGSV,3,2,12,09,14,095,21,11,57,269,20,12,43,301,26,17,34,102,29*7E
11.64534854888916:$GPGSV,3,3,12,19,56,086,17,20,33,201,28,24,03,251,,25,13,320,*75
11.688624620437622:$GPGLL,3938.26598,N,07957.12929,W,190140.00,A,A*7A
12.278571128845215:$GPRMC,190141.00,A,3938.26643,N,07957.12904,W,0.100,,140523,,,A*68
12.311983585357666:$GPVTG,,T,,M,0.100,N,0.186,K,A*2D
12.378676891326904:$GPGGA,190141.00,3938.26643,N,07957.12904,W,1,05,1.77,391.1,M,-33.9,M,,*6E
12.445120573043823:$GPGSA,A,3,06,19,12,17,20,,,,,,,,5.01,1.77,4.69*05
12.511906623840332:$GPGSV,3,1,12,03,03,035,,04,09,064,20,05,08,204,27,06,65,025,32*7E
12.578377723693848:$GPGSV,3,2,12,09,14,095,20,11,57,269,20,12,43,301,26,17,34,102,28*7E
12.64504361152649:$GPGSV,3,3,12,19,56,086,17,20,33,201,28,24,03,251,,25,13,320,*75
12.688435077667236:$GPGLL,3938.26643,N,07957.12904,W,190141.00,A,A*71
13.277092456817627:$GPRMC,190142.00,A,3938.26690,N,07957.12873,W,0.171,,140523,,,A*62
13.31035590171814:$GPVTG,,T,,M,0.171,N,0.317,K,A*21
13.376999378204346:$GPGGA,190142.00,3938.26690,N,07957.12873,W,1,05,1.77,388.8,M,-33.9,M,,*63
13.44364047050476:$GPGSA,A,3,06,19,12,17,20,,,,,,,,5.01,1.77,4.69*05
13.510275840759277:$GPGSV,3,1,12,03,03,035,,04,09,064,20,05,08,204,26,06,65,025,32*7F
13.577119588851929:$GPGSV,3,2,12,09,14,095,20,11,57,269,21,12,43,301,26,17,34,102,28*7F
13.643304586410522:$GPGSV,3,3,12,19,56,086,18,20,33,201,29,24,03,251,,25,13,320,*7B
13.686878442764282:$GPGLL,3938.26690,N,07957.12873,W,190142.00,A,A*7D
14.279600143432617:$GPRMC,190143.00,A,3938.26696,N,07957.12870,W,0.053,,140523,,,A*67
14.313027381896973:$GPVTG,,T,,M,0.053,N,0.098,K,A*24
14.379759311676025:$GPGGA,190143.00,3938.26696,N,07957.12870,W,1,05,1.77,388.3,M,-33.9,M,,*6C
14.446348190307617:$GPGSA,A,3,06,19,12,17,20,,,,,,,,5.01,1.77,4.69*05
14.513029098510742:$GPGSV,3,1,12,03,03,035,,04,09,064,20,05,08,204,26,06,65,025,32*7F
14.579519987106323:$GPGSV,3,2,12,09,14,095,19,11,57,269,20,12,43,301,26,17,34,102,27*7B
14.646115064620972:$GPGSV,3,3,12,19,56,086,19,20,33,201,29,24,03,251,,25,13,320,*7A
14.689541339874268:$GPGLL,3938.26696,N,07957.12870,W,190143.00,A,A*79
15.279062747955322:$GPRMC,190144.00,A,3938.26728,N,07957.12853,W,0.039,,140523,,,A*69
15.312465190887451:$GPVTG,,T,,M,0.039,N,0.071,K,A*2F
15.378825664520264:$GPGGA,190144.00,3938.26728,N,07957.12853,W,1,05,1.77,387.4,M,-33.9,M,,*66
15.445583820343018:$GPGSA,A,3,06,19,12,17,20,,,,,,,,5.01,1.77,4.69*05
15.512354612350464:$GPGSV,3,1,12,03,03,035,,04,09,064,20,05,08,204,25,06,65,025,32*7C
15.5790696144104:$GPGSV,3,2,12,09,14,095,19,11,57,269,21,12,43,301,27,17,34,102,28*74
15.64580774307251:$GPGSV,3,3,12,19,56,086,19,20,33,201,30,24,03,251,,25,13,320,*72
15.68880033493042:$GPGLL,3938.26728,N,07957.12853,W,190144.00,A,A*7B
16.277951955795288:$GPRMC,190145.00,A,3938.26732,N,07957.12855,W,0.039,,140523,,,A*65
16.311437129974365:$GPVTG,,T,,M,0.039,N,0.073,K,A*2D
16.377869129180908:$GPGGA,190145.00,3938.26732,N,07957.12855,W,1,05,1.77,386.5,M,-33.9,M,,*6A
16.44444704055786:$GPGSA,A,3,06,19,12,17,20,,,,,,,,5.01,1.77,4.69*05
16.51099467277527:$GPGSV,3,1,12,03,03,035,,04,09,064,21,05,08,204,25,06,65,025,32*7D
16.577977657318115:$GPGSV,3,2,12,09,14,095,19,11,57,269,20,12,43,301,27,17,34,102,28*75
16.64475393295288:$GPGSV,3,3,12,19,56,086,19,20,33,201,31,24,03,251,,25,13,320,*73
16.687759399414062:$GPGLL,3938.26732,N,07957.12855,W,190145.00,A,A*77
17.276719093322754:$GPRMC,190146.00,A,3938.26792,N,07957.12833,W,0.101,,140523,,,A*66
17.310056447982788:$GPVTG,,T,,M,0.101,N,0.186,K,A*2C
17.37704348564148:$GPGGA,190146.00,3938.26792,N,07957.12833,W,1,05,1.77,384.5,M,-33.9,M,,*61
17.443451166152954:$GPGSA,A,3,06,19,12,17,20,,,,,,,,5.01,1.77,4.69*05
17.51005530357361:$GPGSV,3,1,12,03,03,035,,04,09,064,21,05,08,204,25,06,65,025,31*7E
17.57687282562256:$GPGSV,3,2,12,09,14,095,19,11,57,269,20,12,43,301,27,17,34,102,27*7A
17.64348340034485:$GPGSV,3,3,12,19,56,086,19,20,33,201,30,24,03,251,,25,13,320,*72
17.686678171157837:$GPGLL,3938.26792,N,07957.12833,W,190146.00,A,A*7E
18.277584552764893:$GPRMC,190147.00,A,3938.26827,N,07957.12822,W,0.077,,140523,,,A*66
18.310789108276367:$GPVTG,,T,,M,0.077,N,0.142,K,A*24
18.37768006324768:$GPGGA,190147.00,3938.26827,N,07957.12822,W,1,05,1.77,382.9,M,-33.9,M,,*6B
18.44383668899536:$GPGSA,A,3,06,19,12,17,20,,,,,,,,5.01,1.77,4.69*05
18.510600566864014:$GPGSV,3,1,12,03,03,035,,04,09,064,21,05,08,204,24,06,65,025,31*7F
18.57733392715454:$GPGSV,3,2,12,09,14,095,20,11,57,269,20,12,43,301,27,17,34,102,28*7F
18.64404845237732:$GPGSV,3,3,12,19,56,086,19,20,33,201,30,24,03,251,,25,13,320,*72
18.687211275100708:$GPGLL,3938.26827,N,07957.12822,W,190147.00,A,A*7E
19.27885341644287:$GPRMC,190148.00,A,3938.26850,N,07957.12816,W,0.177,,140523,,,A*6F
19.312239408493042:$GPVTG,,T,,M,0.177,N,0.328,K,A*2B
19.379120349884033:$GPGGA,190148.00,3938.26850,N,07957.12816,W,1,05,1.77,381.6,M,-33.9,M,,*6F
19.4454026222229:$GPGSA,A,3,06,19,12,17,20,,,,,,,,5.02,1.77,4.69*06
19.512102842330933:$GPGSV,3,1,12,03,03,035,,04,09,064,21,05,08,204,25,06,65,025,32*7D
19.57885456085205:$GPGSV,3,2,12,09,14,095,20,11,57,269,19,12,43,301,26,17,34,102,27*7B
19.645575523376465:$GPGSV,3,3,12,19,56,086,19,20,33,201,31,24,03,251,17,25,13,320,*75
19.690601587295532:$GPGLL,3938.26850,N,07957.12816,W,190148.00,A,A*76
20.279970407485962:$GPRMC,190149.00,A,3938.26873,N,07957.12809,W,0.103,,140523,,,A*62
20.313370943069458:$GPVTG,,T,,M,0.103,N,0.190,K,A*29
20.38010835647583:$GPGGA,190149.00,3938.26873,N,07957.12809,W,1,05,1.77,381.0,M,-33.9,M,,*67
20.446526527404785:$GPGSA,A,3,06,19,12,17,20,,,,,,,,5.02,1.77,4.69*06
20.513373136520386:$GPGSV,3,1,12,03,03,035,,04,09,064,21,05,08,204,25,06,65,025,31*7E
20.579885959625244:$GPGSV,3,2,12,09,14,095,21,11,57,269,19,12,43,301,26,17,34,102,27*7A
20.646520853042603:$GPGSV,3,3,12,19,56,086,19,20,33,201,31,24,03,251,17,25,13,320,*75
20.691975355148315:$GPGLL,3938.26873,N,07957.12809,W,190149.00,A,A*78
21.275901556015015:$GPRMC,190150.00,A,3938.26894,N,07957.12812,W,0.071,,140523,,,A*6D
21.309210300445557:$GPVTG,,T,,M,0.071,N,0.131,K,A*26
21.375982999801636:$GPGGA,190150.00,3938.26894,N,07957.12812,W,1,05,1.77,380.6,M,-33.9,M,,*6B
21.442474365234375:$GPGSA,A,3,06,19,12,17,20,,,,,,,,5.02,1.77,4.69*06
21.508917570114136:$GPGSV,3,1,12,03,03,035,,04,09,064,21,05,08,204,25,06,65,025,31*7E
21.575961589813232:$GPGSV,3,2,12,09,14,095,20,11,57,269,19,12,43,301,27,17,34,102,27*7A
21.642491102218628:$GPGSV,3,3,12,19,56,086,19,20,33,201,31,24,03,251,17,25,13,320,*75
21.687773942947388:$GPGLL,3938.26894,N,07957.12812,W,190150.00,A,A*73
22.278849840164185:$GPRMC,190151.00,A,3938.26919,N,07957.12806,W,0.053,,140523,,,A*6D
22.312211275100708:$GPVTG,,T,,M,0.053,N,0.099,K,A*25
22.37900948524475:$GPGGA,190151.00,3938.26919,N,07957.12806,W,1,05,1.77,379.9,M,-33.9,M,,*62
22.445350408554077:$GPGSA,A,3,06,19,12,17,20,,,,,,,,5.02,1.77,4.69*06
22.512054204940796:$GPGSV,3,1,12,03,03,035,,04,09,064,21,05,08,204,24,06,65,025,31*7F
22.578659296035767:$GPGSV,3,2,12,09,14,095,20,11,57,269,19,12,43,301,26,17,34,102,27*7B
22.645270824432373:$GPGSV,3,3,12,19,56,086,20,20,33,201,31,24,03,251,,25,13,320,*79
22.688607454299927:$GPGLL,3938.26919,N,07957.12806,W,190151.00,A,A*73
23.27774930000305:$GPRMC,190152.00,A,3938.26979,N,07957.12793,W,0.076,,140523,,,A*6C
23.311177730560303:$GPVTG,,T,,M,0.076,N,0.141,K,A*26
23.377994537353516:$GPGGA,190152.00,3938.26979,N,07957.12793,W,1,05,1.77,378.6,M,-33.9,M,,*6A
23.44452977180481:$GPGSA,A,3,06,19,12,17,20,,,,,,,,5.02,1.77,4.69*06
23.511028289794922:$GPGSV,3,1,12,03,03,035,,04,09,064,21,05,08,204,24,06,65,025,32*7C
23.57801342010498:$GPGSV,3,2,12,09,14,095,20,11,57,269,19,12,43,301,26,17,34,102,27*7B
23.644445657730103:$GPGSV,3,3,12,19,56,086,20,20,33,201,31,24,03,251,16,25,13,320,*7E
23.68985104560852:$GPGLL,3938.26979,N,07957.12793,W,190152.00,A,A*75
24.277666091918945:$GPRMC,190153.00,A,3938.27010,N,07957.12790,W,0.080,,140523,,,A*60
24.311001777648926:$GPVTG,,T,,M,0.080,N,0.149,K,A*27
24.377646446228027:$GPGGA,190153.00,3938.27010,N,07957.12790,W,1,05,1.77,378.0,M,-33.9,M,,*69
24.444153547286987:$GPGSA,A,3,06,19,12,17,20,,,,,,,,5.02,1.77,4.69*06
24.51069140434265:$GPGSV,3,1,12,03,03,035,,04,09,064,21,05,08,204,24,06,65,025,31*7F
24.577404737472534:$GPGSV,3,2,12,09,14,095,,11,57,269,18,12,43,301,26,17,34,102,28*77
24.644248247146606:$GPGSV,3,3,12,19,56,086,20,20,33,201,31,24,03,251,,25,13,320,*79
24.68532919883728:$GPGLL,3938.27010,N,07957.12790,W,190153.00,A,A*70
25.273453950881958:$GPRMC,190154.00,A,3938.27027,N,07957.12789,W,0.040,,140523,,,A*67
25.306759357452393:$GPVTG,,T,,M,0.040,N,0.074,K,A*24
25.373841047286987:$GPGGA,190154.00,3938.27027,N,07957.12789,W,1,05,1.77,377.6,M,-33.9,M,,*6B
25.440344095230103:$GPGSA,A,3,06,19,12,17,20,,,,,,,,5.02,1.77,4.70*0E
25.506948709487915:$GPGSV,3,1,12,03,03,035,,04,09,064,21,05,08,204,24,06,65,025,32*7C
25.57375478744507:$GPGSV,3,2,12,09,14,095,,11,57,269,17,12,43,301,26,17,34,102,27*77
25.640408754348755:$GPGSV,3,3,12,19,56,086,20,20,33,201,31,24,03,251,16,25,13,320,*7E
25.68344759941101:$GPGLL,3938.27027,N,07957.12789,W,190154.00,A,A*7B
26.279773712158203:$GPRMC,190155.00,A,3938.27029,N,07957.12792,W,0.070,,140523,,,A*61
26.313153982162476:$GPVTG,,T,,M,0.070,N,0.129,K,A*2E
26.379794120788574:$GPGGA,190155.00,3938.27029,N,07957.12792,W,1,05,1.77,377.6,M,-33.9,M,,*6E
26.44637417793274:$GPGSA,A,3,06,19,12,17,20,,,,,,,,5.02,1.77,4.70*0E
26.513097286224365:$GPGSV,3,1,12,03,03,035,,04,09,064,21,05,08,204,24,06,65,025,32*7C
26.57963800430298:$GPGSV,3,2,12,09,14,095,,11,57,269,18,12,43,301,26,17,34,102,28*77
26.646334886550903:$GPGSV,3,3,12,19,56,086,21,20,33,201,31,24,03,251,15,25,13,320,*7C
26.68965721130371:$GPGLL,3938.27029,N,07957.12792,W,190155.00,A,A*7E
27.2774760723114:$GPRMC,190156.00,A,3938.27039,N,07957.12794,W,0.031,,140523,,,A*60
27.310806274414062:$GPVTG,,T,,M,0.031,N,0.058,K,A*2C
27.377423763275146:$GPGGA,190156.00,3938.27039,N,07957.12794,W,1,05,1.77,377.5,M,-33.9,M,,*69
27.44407820701599:$GPGSA,A,3,06,19,12,17,20,,,,,,,,5.02,1.77,4.70*0E
27.510841369628906:$GPGSV,3,1,12,03,03,035,,04,09,064,21,05,08,204,23,06,65,025,32*7B
27.57752752304077:$GPGSV,3,2,12,09,14,095,,11,57,269,18,12,43,301,26,17,34,102,28*77
27.644126653671265:$GPGSV,3,3,12,19,56,086,21,20,33,201,31,24,03,251,14,25,13,320,*7D
27.68726682662964:$GPGLL,3938.27039,N,07957.12794,W,190156.00,A,A*7A
28.279407739639282:$GPRMC,190157.00,A,3938.27057,N,07957.12790,W,0.009,,140523,,,A*66
28.312662601470947:$GPVTG,,T,,M,0.009,N,0.016,K,A*2D
28.37938618659973:$GPGGA,190157.00,3938.27057,N,07957.12790,W,1,05,1.77,377.1,M,-33.9,M,,*60
28.44585657119751:$GPGSA,A,3,06,19,12,17,20,,,,,,,,5.02,1.77,4.70*0E
28.51282787322998:$GPGSV,3,1,12,03,03,035,,04,09,064,21,05,08,204,22,06,65,025,32*7A
28.579195261001587:$GPGSV,3,2,12,09,14,095,21,11,57,269,16,12,43,301,26,17,34,102,28*7A
28.645890951156616:$GPGSV,3,3,12,19,56,086,20,20,33,201,31,24,03,251,14,25,13,320,*7C
28.6912100315094:$GPGLL,3938.27057,N,07957.12790,W,190157.00,A,A*77
29.27463960647583:$GPRMC,190158.00,A,3938.27078,N,07957.12785,W,0.061,,140523,,,A*6E
29.307966470718384:$GPVTG,,T,,M,0.061,N,0.113,K,A*27
29.37450909614563:$GPGGA,190158.00,3938.27078,N,07957.12785,W,1,05,1.77,376.6,M,-33.9,M,,*60
29.441144943237305:$GPGSA,A,3,06,19,12,17,20,,,,,,,,5.02,1.77,4.70*0E
29.507858753204346:$GPGSV,3,1,12,03,03,035,,04,09,064,21,05,08,204,22,06,65,025,32*7A
29.574556827545166:$GPGSV,3,2,12,09,14,095,21,11,57,269,14,12,43,301,26,17,34,102,28*78
29.641294717788696:$GPGSV,3,3,12,19,56,086,21,20,33,201,31,24,03,251,14,25,13,320,*7D
29.68636393547058:$GPGLL,3938.27078,N,07957.12785,W,190158.00,A,A*71
30.27995228767395:$GPRMC,190159.00,A,3938.27083,N,07957.12782,W,0.098,,140523,,,A*6A
30.313149452209473:$GPVTG,,T,,M,0.098,N,0.181,K,A*2A
30.380064487457275:$GPGGA,190159.00,3938.27083,N,07957.12782,W,1,05,1.77,376.6,M,-33.9,M,,*62
30.446573495864868:$GPGSA,A,3,06,19,12,17,20,,,,,,,,5.02,1.77,4.70*0E
30.512933015823364:$GPGSV,3,1,12,03,03,035,,04,09,064,21,05,08,204,22,06,65,025,32*7A
30.579787254333496:$GPGSV,3,2,12,09,14,095,21,11,57,269,14,12,43,301,25,17,34,102,28*7B
30.64639925956726:$GPGSV,3,3,12,19,56,086,22,20,33,201,31,24,03,251,13,25,13,320,*79
30.691892862319946:$GPGLL,3938.27083,N,07957.12782,W,190159.00,A,A*73
31.2772855758667:$GPRMC,190200.00,A,3938.27092,N,07957.12787,W,0.033,,140523,,,A*61
31.310666799545288:$GPVTG,,T,,M,0.033,N,0.061,K,A*24
31.377302408218384:$GPGGA,190200.00,3938.27092,N,07957.12787,W,1,05,1.77,376.5,M,-33.9,M,,*6B
31.444119453430176:$GPGSA,A,3,06,19,12,17,20,,,,,,,,5.02,1.77,4.70*0E
31.510688066482544:$GPGSV,3,1,12,03,03,035,,04,09,064,21,05,08,204,22,06,65,025,32*7A
31.577289581298828:$GPGSV,3,2,12,09,14,095,21,11,57,269,15,12,43,301,25,17,34,102,28*7A
31.644001960754395:$GPGSV,3,3,12,19,56,086,22,20,33,201,31,24,03,251,11,25,13,320,*7B
31.68921995162964:$GPGLL,3938.27092,N,07957.12787,W,190200.00,A,A*79
32.27920174598694:$GPRMC,190201.00,A,3938.27106,N,07957.12786,W,0.061,,140523,,,A*6A
32.3124475479126:$GPVTG,,T,,M,0.061,N,0.114,K,A*20
32.37917351722717:$GPGGA,190201.00,3938.27106,N,07957.12786,W,1,05,1.77,376.2,M,-33.9,M,,*60
32.44571614265442:$GPGSA,A,3,06,19,12,17,20,,,,,,,,5.02,1.77,4.70*0E
32.512444257736206:$GPGSV,3,1,12,03,03,035,,04,09,064,21,05,08,204,23,06,65,025,32*7B
32.57907319068909:$GPGSV,3,2,12,09,14,095,21,11,57,269,13,12,43,301,25,17,34,102,28*7C
32.645716190338135:$GPGSV,3,3,12,19,56,086,23,20,33,201,31,24,03,251,08,25,13,320,*72
32.69107127189636:$GPGLL,3938.27106,N,07957.12786,W,190201.00,A,A*75
33.277666330337524:$GPRMC,190202.00,A,3938.27111,N,07957.12781,W,0.041,,140523,,,A*6A
33.31080198287964:$GPVTG,,T,,M,0.041,N,0.075,K,A*24
33.377676486968994:$GPGGA,190202.00,3938.27111,N,07957.12781,W,1,05,1.77,376.0,M,-33.9,M,,*60
33.444263219833374:$GPGSA,A,3,06,19,12,17,20,,,,,,,,5.02,1.77,4.70*0E
33.51089119911194:$GPGSV,3,1,12,03,03,035,,04,09,064,21,05,08,204,22,06,65,025,32*7A
33.57773494720459:$GPGSV,3,2,12,09,14,095,20,11,57,269,11,12,43,301,26,17,34,102,28*7C
33.64425706863403:$GPGSV,3,3,12,19,56,086,23,20,33,201,31,24,03,251,09,25,13,320,*73
33.68929362297058:$GPGLL,3938.27111,N,07957.12781,W,190202.00,A,A*77
34.27723836898804:$GPRMC,190203.00,A,3938.27127,N,07957.12783,W,0.104,,140523,,,A*6C
34.31054735183716:$GPVTG,,T,,M,0.104,N,0.192,K,A*2C
34.377158641815186:$GPGGA,190203.00,3938.27127,N,07957.12783,W,1,05,1.77,375.2,M,-33.9,M,,*67
34.44381093978882:$GPGSA,A,3,06,19,12,17,20,,,,,,,,5.02,1.77,4.70*0E
34.51024270057678:$GPGSV,3,1,12,03,03,035,,04,09,064,21,05,08,204,21,06,65,025,32*79
34.57697105407715:$GPGSV,3,2,12,09,14,095,20,11,57,269,,12,43,301,26,17,34,102,28*7C
34.643826961517334:$GPGSV,3,3,12,19,56,086,24,20,33,201,31,24,03,251,11,25,13,320,*7D
34.68695783615112:$GPGLL,3938.27127,N,07957.12783,W,190203.00,A,A*71
35.2745463848114:$GPRMC,190204.00,A,3938.27146,N,07957.12782,W,0.119,,140523,,,A*61
35.30780816078186:$GPVTG,,T,,M,0.119,N,0.221,K,A*2B
35.37441086769104:$GPGGA,190204.00,3938.27146,N,07957.12782,W,1,05,1.77,374.5,M,-33.9,M,,*60
35.44120502471924:$GPGSA,A,3,06,19,12,17,20,,,,,,,,5.02,1.77,4.70*0E
35.50794458389282:$GPGSV,3,1,12,03,03,035,,04,09,064,21,05,08,204,21,06,65,025,32*79
35.57459831237793:$GPGSV,3,2,12,09,14,095,20,11,57,269,,12,43,301,26,17,34,102,28*7C
35.64125967025757:$GPGSV,3,3,12,19,56,086,25,20,33,201,31,24,03,251,12,25,13,320,*7F
35.68435716629028:$GPGLL,3938.27146,N,07957.12782,W,190204.00,A,A*70
36.27565908432007:$GPRMC,190205.00,A,3938.27162,N,07957.12780,W,0.044,,140523,,,A*6D
36.30905556678772:$GPVTG,,T,,M,0.044,N,0.081,K,A*2A
36.3756799697876:$GPGGA,190205.00,3938.27162,N,07957.12780,W,1,05,1.77,373.8,M,-33.9,M,,*6F
36.44226145744324:$GPGSA,A,3,06,19,12,17,20,,,,,,,,5.02,1.77,4.70*0E
36.50898337364197:$GPGSV,3,1,12,03,03,035,19,04,09,064,21,05,08,204,21,06,65,025,32*71
36.57547450065613:$GPGSV,3,2,12,09,14,095,19,11,57,269,17,12,43,301,25,17,34,102,28*73
36.642112255096436:$GPGSV,3,3,12,19,56,086,25,20,33,201,31,24,03,251,13,25,13,320,*7E
36.68943643569946:$GPGLL,3938.27162,N,07957.12780,W,190205.00,A,A*75
37.277552127838135:$GPRMC,190206.00,A,3938.27177,N,07957.12781,W,0.077,,140523,,,A*6B
37.310938358306885:$GPVTG,,T,,M,0.077,N,0.142,K,A*24
37.37738394737244:$GPGGA,190206.00,3938.27177,N,07957.12781,W,1,05,1.77,373.2,M,-33.9,M,,*63
37.44412970542908:$GPGSA,A,3,06,19,12,17,20,,,,,,,,5.02,1.77,4.70*0E
37.510775089263916:$GPGSV,3,1,12,03,03,035,16,04,09,064,21,05,08,204,20,06,65,025,32*7F
37.57763385772705:$GPGSV,3,2,12,09,14,095,19,11,57,269,16,12,43,301,25,17,34,102,28*72
37.64419722557068:$GPGSV,3,3,12,19,56,086,26,20,33,201,31,24,03,251,12,25,13,320,*7C
37.69160747528076:$GPGLL,3938.27177,N,07957.12781,W,190206.00,A,A*73
38.28137731552124:$GPRMC,190207.00,A,3938.27199,N,07957.12784,W,0.099,,140523,,,A*6F
38.314796447753906:$GPVTG,,T,,M,0.099,N,0.183,K,A*29
38.381277322769165:$GPGGA,190207.00,3938.27199,N,07957.12784,W,1,05,1.77,372.5,M,-33.9,M,,*61
38.44791293144226:$GPGSA,A,3,06,19,12,17,20,,,,,,,,5.03,1.77,4.70*0F
38.514684438705444:$GPGSV,3,1,12,03,03,035,13,04,09,064,20,05,08,204,20,06,65,025,33*7A
38.58126258850098:$GPGSV,3,2,12,09,14,095,19,11,57,269,14,12,43,301,25,17,34,102,28*70
38.64787530899048:$GPGSV,3,3,12,19,56,086,27,20,33,201,31,24,03,251,10,25,13,320,*7F
38.69528651237488:$GPGLL,3938.27199,N,07957.12784,W,190207.00,A,A*77
39.27940249443054:$GPRMC,190208.00,A,3938.27217,N,07957.12787,W,0.039,,140523,,,A*6C
39.31282019615173:$GPVTG,,T,,M,0.039,N,0.073,K,A*2D
39.37932229042053:$GPGGA,190208.00,3938.27217,N,07957.12787,W,1,05,1.77,371.7,M,-33.9,M,,*69
39.445961475372314:$GPGSA,A,3,06,19,12,17,20,,,,,,,,5.03,1.77,4.70*0F
39.51262545585632:$GPGSV,3,1,12,03,03,035,10,04,09,064,21,05,08,204,20,06,65,025,33*78
39.579468965530396:$GPGSV,3,2,12,09,14,095,20,11,57,269,15,12,43,301,25,17,34,102,28*7B
39.646119117736816:$GPGSV,3,3,12,19,56,086,27,20,33,201,31,24,03,251,09,25,13,320,*77
39.69346213340759:$GPGLL,3938.27217,N,07957.12787,W,190208.00,A,A*7E
40.28052735328674:$GPRMC,190209.00,A,3938.27233,N,07957.12793,W,0.031,,140523,,,A*66
40.31377720832825:$GPVTG,,T,,M,0.031,N,0.058,K,A*2C
40.38052487373352:$GPGGA,190209.00,3938.27233,N,07957.12793,W,1,05,1.77,371.0,M,-33.9,M,,*6C
40.44709610939026:$GPGSA,A,3,06,19,12,17,20,,,,,,,,5.03,1.77,4.70*0F
40.513819456100464:$GPGSV,3,1,12,03,03,035,10,04,09,064,20,05,08,204,19,06,65,025,33*73
40.580299377441406:$GPGSV,3,2,12,09,14,095,21,11,57,269,16,12,43,301,25,17,34,102,28*79
40.646992206573486:$GPGSV,3,3,12,19,56,086,27,20,33,201,30,24,03,251,09,25,13,320,*76
40.69448375701904:$GPGLL,3938.27233,N,07957.12793,W,190209.00,A,A*7C
41.27574968338013:$GPRMC,190210.00,A,3938.27247,N,07957.12799,W,0.093,,140523,,,A*6F
41.3091881275177:$GPVTG,,T,,M,0.093,N,0.171,K,A*2E
41.37570142745972:$GPGGA,190210.00,3938.27247,N,07957.12799,W,1,05,1.77,370.3,M,-33.9,M,,*6F
41.442413091659546:$GPGSA,A,3,06,19,12,17,20,,,,,,,,5.03,1.77,4.70*0F
41.509074687957764:$GPGSV,3,1,12,03,03,035,,04,09,064,20,05,08,204,20,06,65,025,33*78
41.57584238052368:$GPGSV,3,2,12,09,14,095,21,11,57,269,16,12,43,301,26,17,34,102,28*7A
41.64243459701538:$GPGSV,3,3,12,19,56,086,28,20,33,201,30,24,03,251,09,25,13,320,*79
41.687798738479614:$GPGLL,3938.27247,N,07957.12799,W,190210.00,A,A*7D
42.27890229225159:$GPRMC,190211.00,A,3938.27263,N,07957.12800,W,0.189,,140523,,,A*6D
42.312294721603394:$GPVTG,,T,,M,0.189,N,0.350,K,A*25
42.378764390945435:$GPGGA,190211.00,3938.27263,N,07957.12800,W,1,05,1.77,369.7,M,-33.9,M,,*6B
42.44545316696167:$GPGSA,A,3,06,19,12,17,20,,,,,,,,5.03,1.77,4.70*0F
42.51228213310242:$GPGSV,3,1,12,03,03,035,,04,09,064,20,05,08,204,22,06,65,025,33*7A
42.578720569610596:$GPGSV,3,2,12,09,14,095,22,11,57,269,17,12,43,301,26,17,34,102,29*79
42.64535593986511:$GPGSV,3,3,12,19,56,086,29,20,33,201,30,24,03,251,09,25,13,320,*78
