1.492833137512207:Booting ...
1.4930217266082764:initializing I/O
1.5167396068572998:initializing DRA818
3.791571855545044:Init - ok
3.8248820304870605:85509.00,,,,,0,04,5.42,,,,,,*51
3.8583359718322754:$GPGSA,A,1,06,19,17,20,,,,,,,,,12.06,5.42,10.77*0D
3.957793712615967:$GPGSV,4,1,13,03,06,035,13,04,09,067,,05,05,203,16,06,68,021,28*74
4.024391174316406:$GPGSV,4,2,13,09,12,098,,11,55,265,,12,41,304,,14,01,157,*71
4.091124773025513:$GPGSV,4,3,13,17,37,100,27,19,58,082,36,20,30,201,25,24,04,253,*73
4.124243497848511:$GPGSV,4,4,13,25,11,321,*4C
4.1246657371521:$GPGLL,,,,,185509.00,V,N*4A
4.753077983856201:$GPRMC,185510.00,V,,,,,,,140523,,,N*74
4.753297567367554:$GPVTG,,,,,,,,,N*30
4.81985330581665:$GPGGA,185510.00,,,,,0,04,5.42,,,,,,*59
4.853255748748779:$GPGSA,A,1,06,19,17,20,,,,,,,,,12.06,5.42,10.77*0D
4.9201154708862305:$GPGSV,4,1,13,03,06,035,11,04,09,067,,05,05,203,,06,68,021,28*71
4.986546516418457:$GPGSV,4,2,13,09,12,098,,11,55,265,,12,41,304,,14,01,157,*71
5.053359746932983:$GPGSV,4,3,13,17,37,100,26,19,58,082,36,20,30,201,25,24,04,253,*72
5.086463451385498:$GPGSV,4,4,13,25,11,321,*4C
5.114220857620239:$GPGLL,,,,,185510.00,V,N*42
5.748067140579224:$GPRMC,185511.00,V,,,,,,,140523,,,N*75
5.74829363822937:$GPVTG,,,,,,,,,N*30
5.814749717712402:$GPGGA,185511.00,,,,,0,04,5.42,,,,,,*58
5.8485424518585205:$GPGSA,A,1,06,19,17,20,,,,,,,,,12.05,5.42,10.76*0F
5.914978742599487:$GPGSV,4,1,13,03,06,035,13,04,09,067,,05,05,203,,06,68,021,28*73
5.981606721878052:$GPGSV,4,2,13,09,12,098,,11,55,265,,12,41,304,,14,01,157,*71
6.048706531524658:$GPGSV,4,3,13,17,37,100,27,19,58,082,36,20,30,201,26,24,04,253,*70
6.081965208053589:$GPGSV,4,4,13,25,11,321,*4C
6.109195232391357:$GPGLL,,,,,185511.00,V,N*43
6.757717847824097:$GPRMC,185512.00,V,,,,,,,140523,,,N*76
6.758010149002075:$GPVTG,,,,,,,,,N*30
6.824213743209839:$GPGGA,185512.00,,,,,0,04,5.42,,,,,,*5B
6.857596397399902:$GPGSA,A,1,06,19,17,20,,,,,,,,,12.05,5.42,10.76*0F
6.924282073974609:$GPGSV,4,1,13,03,06,035,,04,09,067,,05,05,203,17,06,68,021,29*76
6.990854978561401:$GPGSV,4,2,13,09,12,098,,11,55,265,,12,41,304,18,14,01,157,21*7B
7.090690612792969:$GPGSV,4,3,13,17,37,100,27,19,58,082,36,20,30,201,26,24,04,253,19*78
7.124558687210083:$GPGSV,4,4,13,25,11,321,*4C
7.125001430511475:$GPGLL,,,,,185512.00,V,N*40
7.7532219886779785:$GPRMC,185513.00,V,,,,,,,140523,,,N*77
7.75355339050293:$GPVTG,,,,,,,,,N*30
7.819848299026489:$GPGGA,185513.00,,,,,0,04,5.41,,,,,,*59
7.8534650802612305:$GPGSA,A,1,06,19,17,20,,,,,,,,,12.04,5.41,10.75*0E
7.920111179351807:$GPGSV,4,1,13,03,06,035,,04,09,067,,05,05,203,20,06,68,021,29*72
7.9864161014556885:$GPGSV,4,2,13,09,12,098,,11,55,265,,12,41,304,18,14,01,157,19*70
8.086256980895996:$GPGSV,4,3,13,17,37,100,27,19,58,082,37,20,30,201,28,24,04,253,*7F
8.086654901504517:$GPGSV,4,4,13,25,11,321,*4C
8.11835241317749:$GPGLL,,,,,185513.00,V,N*41
8.755338668823242:$GPRMC,185514.00,V,,,,,,,140523,,,N*70
8.755659580230713:$GPVTG,,,,,,,,,N*30
8.821845769882202:$GPGGA,185514.00,,,,,0,04,5.41,,,,,,*5E
8.85556674003601:$GPGSA,A,1,06,19,17,20,,,,,,,,,12.03,5.41,10.75*09
8.921901226043701:$GPGSV,4,1,13,03,06,035,,04,09,067,,05,05,203,,06,68,021,28*71
8.988670587539673:$GPGSV,4,2,13,09,12,098,18,11,55,265,19,12,41,304,,14,01,157,*70
9.055069208145142:$GPGSV,4,3,13,17,37,100,27,19,58,082,36,20,30,201,28,24,04,253,*7E
9.088297605514526:$GPGSV,4,4,13,25,11,321,19*44
9.120580196380615:$GPGLL,,,,,185514.00,V,N*46
9.747660160064697:$GPRMC,185515.00,V,,,,,,,140523,,,N*71
9.747950077056885:$GPVTG,,,,,,,,,N*30
9.81420350074768:$GPGGA,185515.00,,,,,0,04,5.41,,,,,,*5F
9.847941875457764:$GPGSA,A,1,06,19,17,20,,,,,,,,,12.03,5.41,10.75*09
9.914587020874023:$GPGSV,4,1,13,03,06,035,17,04,09,067,23,05,05,203,,06,68,021,29*77
10.014070749282837:$GPGSV,4,2,13,09,12,098,,11,55,265,18,12,41,304,23,14,01,157,18*70
10.08078932762146:$GPGSV,4,3,13,17,37,100,27,19,58,082,36,20,30,201,28,24,04,253,*7E
10.114091634750366:$GPGSV,4,4,13,25,11,321,22*4C
10.11868929862976:$GPGLL,,,,,185515.00,V,N*47
10.786887407302856:$GPRMC,185516.00,A,3938.27948,N,07957.13192,W,0.119,,140523,,,A*61
10.820129871368408:$GPVTG,,T,,M,0.119,N,0.220,K,A*2A
10.886830806732178:$GPGGA,185516.00,3938.27948,N,07957.13192,W,1,04,5.40,313.5,M,-33.9,M,,*60
10.953341960906982:$GPGSA,A,3,06,19,17,20,,,,,,,,,12.02,5.40,10.74*0A
11.0199134349823:$GPGSV,4,1,13,03,06,035,,04,09,067,,05,05,203,18,06,68,021,28*78
11.08684515953064:$GPGSV,4,2,13,09,12,098,18,11,55,265,18,12,41,304,22,14,01,157,*71
11.153498649597168:$GPGSV,4,3,13,17,37,100,27,19,58,082,36,20,30,201,29,24,04,253,21*7C
11.186795711517334:$GPGSV,4,4,13,25,11,321,*4C
11.226688146591187:$GPGLL,3938.27948,N,07957.13192,W,185516.00,A,A*70
11.784396648406982:$GPRMC,185517.00,A,3938.27956,N,07957.13227,W,0.101,,140523,,,A*6B
11.817995548248291:$GPVTG,,T,,M,0.101,N,0.187,K,A*2D
11.884431838989258:$GPGGA,185517.00,3938.27956,N,07957.13227,W,1,04,5.40,312.8,M,-33.9,M,,*6F
11.950991868972778:$GPGSA,A,3,06,19,17,20,,,,,,,,,12.02,5.40,10.74*0A
12.018011808395386:$GPGSV,4,1,13,03,06,035,21,04,09,067,19,05,05,203,21,06,68,021,29*78
12.084361553192139:$GPGSV,4,2,13,09,12,098,,11,55,265,16,12,41,304,20,14,01,157,18*7D
12.15131425857544:$GPGSV,4,3,13,17,37,100,27,19,58,082,36,20,30,201,29,24,04,253,*7F
12.184332370758057:$GPGSV,4,4,13,25,11,321,20*4E
12.22870659828186:$GPGLL,3938.27956,N,07957.13227,W,185517.00,A,A*73
12.786616563796997:$GPRMC,185518.00,A,3938.27964,N,07957.13247,W,0.225,,140523,,,A*66
12.820018768310547:$GPVTG,,T,,M,0.225,N,0.417,K,A*24
12.88700532913208:$GPGGA,185518.00,3938.27964,N,07957.13247,W,1,04,5.40,312.3,M,-33.9,M,,*6C
12.95327639579773:$GPGSA,A,3,06,19,17,20,,,,,,,,,12.01,5.40,10.73*0E
13.020078897476196:$GPGSV,4,1,13,03,06,035,19,04,09,067,,05,05,203,18,06,68,021,28*70
13.086544036865234:$GPGSV,4,2,13,09,12,098,17,11,55,265,,12,41,304,18,14,01,157,*7E
13.153199672698975:$GPGSV,4,3,13,17,37,100,27,19,58,082,35,20,30,201,28,24,04,253,*7D
13.186342000961304:$GPGSV,4,4,13,25,11,321,*4C
13.224554061889648:$GPGLL,3938.27964,N,07957.13247,W,185518.00,A,A*7B
13.750884771347046:$GPRMC,185519.00,V,,,,,,,140523,,,N*7D
13.75109338760376:$GPVTG,,,,,,,,,N*30
13.817496538162231:$GPGGA,185519.00,,,,,0,03,99.99,,,,,,*64
13.850966691970825:$GPGSA,A,1,06,19,17,,,,,,,,,,99.99,99.99,1.00*09
13.917691946029663:$GPGSV,4,1,13,03,06,035,16,04,09,067,21,05,05,203,18,06,68,021,28*7C
14.017367362976074:$GPGSV,4,2,13,09,12,098,16,11,55,265,,12,41,304,18,14,01,157,*7F
14.084086656570435:$GPGSV,4,3,13,17,37,100,27,19,58,082,35,20,30,201,28,24,04,253,*7D
14.117390632629395:$GPGSV,4,4,13,25,11,321,20*4E
14.12119197845459:$GPGLL,,,,,185519.00,V,N*4B
14.749305248260498:$GPRMC,185520.00,V,,,,,,,140523,,,N*77
14.74940800666809:$GPVTG,,,,,,,,,N*30
14.816096067428589:$GPGGA,185520.00,,,,,0,03,99.99,,,,,,*6E
14.849616527557373:$GPGSA,A,1,06,19,17,,,,,,,,,,99.99,99.99,1.00*09
14.915963649749756:$GPGSV,4,1,13,03,06,035,16,04,09,067,,05,05,203,,06,68,021,28*76
14.982944250106812:$GPGSV,4,2,13,09,12,098,17,11,55,265,,12,41,304,20,14,01,157,*75
15.08267593383789:$GPGSV,4,3,13,17,37,100,27,19,58,082,35,20,30,201,28,24,04,253,18*74
15.08306622505188:$GPGSV,4,4,13,25,11,321,*4C
15.116142272949219:$GPGLL,,,,,185520.00,V,N*41
15.740177631378174:$GPRMC,185521.00,V,,,,,,,140523,,,N*76
15.740501880645752:$GPVTG,,,,,,,,,N*30
15.806605339050293:$GPGGA,185521.00,,,,,0,00,99.99,,,,,,*6C
15.840084552764893:$GPGSA,A,1,,,,,,,,,,,,,99.99,99.99,99.99*30
15.9071683883667:$GPGSV,4,1,13,03,06,035,15,04,09,067,19,05,05,203,21,06,68,021,28*7E
15.973347663879395:$GPGSV,4,2,13,09,12,098,16,11,55,265,,12,41,304,18,14,01,157,*7F
16.073079347610474:$GPGSV,4,3,13,17,37,100,27,19,58,082,35,20,30,201,27,24,04,253,16*75
16.07322931289673:$GPGSV,4,4,13,25,11,321,*4C
16.10547375679016:$GPGLL,,,,,185521.00,V,N*40
16.742895364761353:$GPRMC,185522.00,V,,,,,,,140523,,,N*75
16.743187189102173:$GPVTG,,,,,,,,,N*30
16.809541702270508:$GPGGA,185522.00,,,,,0,00,99.99,,,,,,*6F
16.842994213104248:$GPGSA,A,1,,,,,,,,,,,,,99.99,99.99,99.99*30
16.909270524978638:$GPGSV,4,1,13,03,06,035,,04,09,067,24,05,05,203,19,06,68,021,28*7F
16.97594380378723:$GPGSV,4,2,13,09,12,098,,11,55,265,,12,41,304,22,14,01,157,*71
17.042607069015503:$GPGSV,4,3,13,17,37,100,26,19,58,082,35,20,30,201,27,24,04,253,*73
17.07601261138916:$GPGSV,4,4,13,25,11,321,*4C
17.101528882980347:$GPGLL,,,,,185522.00,V,N*43
17.742713928222656:$GPRMC,185523.00,V,,,,,,,140523,,,N*74
17.74303650856018:$GPVTG,,,,,,,,,N*30
17.80935001373291:$GPGGA,185523.00,,,,,0,00,99.99,,,,,,*6E
17.842825174331665:$GPGSA,A,1,,,,,,,,,,,,,99.99,99.99,99.99*30
17.909421682357788:$GPGSV,4,1,13,03,06,035,,04,09,067,23,05,05,203,16,06,68,021,28*77
17.976116180419922:$GPGSV,4,2,13,09,12,098,,11,55,265,,12,41,304,19,14,01,157,*79
18.042506217956543:$GPGSV,4,3,13,17,37,100,26,19,58,082,35,20,30,201,27,24,04,253,19*7B
18.076152086257935:$GPGSV,4,4,13,25,11,321,15*48
18.105400562286377:$GPGLL,,,,,185523.00,V,N*42
18.746147632598877:$GPRMC,185524.00,V,,,,,,,140523,,,N*73
18.74625015258789:$GPVTG,,,,,,,,,N*30
18.81275701522827:$GPGGA,185524.00,,,,,0,00,99.99,,,,,,*69
18.84612464904785:$GPGSA,A,1,,,,,,,,,,,,,99.99,99.99,99.99*30
18.912811517715454:$GPGSV,4,1,13,03,06,035,,04,09,067,24,05,05,203,,06,68,021,29*76
18.979732275009155:$GPGSV,4,2,13,09,12,098,22,11,55,265,,12,41,304,18,14,01,157,24*7E
19.04647707939148:$GPGSV,4,3,13,17,37,100,26,19,58,082,36,20,30,201,27,24,04,253,18*79
19.079883575439453:$GPGSV,4,4,13,25,11,321,16*4B
19.111886978149414:$GPGLL,,,,,185524.00,V,N*45
19.745614767074585:$GPRMC,185525.00,V,,,,,,,140523,,,N*72
19.745936155319214:$GPVTG,,,,,,,,,N*30
19.812216758728027:$GPGGA,185525.00,,,,,0,00,99.99,,,,,,*68
19.845484018325806:$GPGSA,A,1,,,,,,,,,,,,,99.99,99.99,99.99*30
19.91216468811035:$GPGSV,4,1,13,03,06,035,,04,09,067,20,05,05,203,25,06,68,021,29*75
19.97900104522705:$GPGSV,4,2,13,09,12,098,20,11,55,265,19,12,41,304,22,14,01,157,21*78
20.078651666641235:$GPGSV,4,3,13,17,37,100,27,19,58,082,36,20,30,201,28,24,04,253,19*76
20.112664937973022:$GPGSV,4,4,13,25,11,321,*4C
20.11308240890503:$GPGLL,,,,,185525.00,V,N*44
20.745854377746582:$GPRMC,185526.00,V,,,,,,,140523,,,N*71
20.74617862701416:$GPVTG,,,,,,,,,N*30
20.81255030632019:$GPGGA,185526.00,,,,,0,00,99.99,,,,,,*6B
20.845642566680908:$GPGSA,A,1,,,,,,,,,,,,,99.99,99.99,99.99*30
20.912522077560425:$GPGSV,4,1,13,03,06,035,18,04,09,067,27,05,05,203,24,06,68,021,29*7A
20.979290008544922:$GPGSV,4,2,13,09,12,098,,11,55,265,,12,41,304,,14,01,157,24*77
21.045735597610474:$GPGSV,4,3,13,17,37,100,27,19,58,082,36,20,30,201,28,24,04,253,*7E
21.079102039337158:$GPGSV,4,4,13,25,11,321,17*4A
21.108771800994873:$GPGLL,,,,,185526.00,V,N*47
21.743112087249756:$GPRMC,185527.00,V,,,,,,,140523,,,N*70
21.74329686164856:$GPVTG,,,,,,,,,N*30
21.8099582195282:$GPGGA,185527.00,,,,,0,00,99.99,,,,,,*6A
21.843489408493042:$GPGSA,A,1,,,,,,,,,,,,,99.99,99.99,99.99*30
21.910120725631714:$GPGSV,4,1,13,03,06,035,20,04,09,067,26,05,05,203,,06,68,021,29*76
21.97681427001953:$GPGSV,4,2,13,09,12,098,19,11,55,265,,12,41,304,,14,01,157,21*7A
22.04326295852661:$GPGSV,4,3,13,17,37,100,27,19,58,082,36,20,30,201,28,24,04,253,20*7C
22.076579570770264:$GPGSV,4,4,13,25,11,321,*4C
22.106509685516357:$GPGLL,,,,,185527.00,V,N*46
22.74572777748108:$GPRMC,185528.00,V,,,,,,,140523,,,N*7F
22.74582815170288:$GPVTG,,,,,,,,,N*30
22.812604427337646:$GPGGA,185528.00,,,,,0,00,99.99,,,,,,*65
22.845983505249023:$GPGSA,A,1,,,,,,,,,,,,,99.99,99.99,99.99*30
22.912813186645508:$GPGSV,4,1,13,03,06,035,,04,09,067,20,05,05,203,,06,68,021,28*73
22.979198694229126:$GPGSV,4,2,13,09,12,098,,11,55,265,18,12,41,304,21,14,01,157,24*7D
23.04595446586609:$GPGSV,4,3,13,17,37,100,27,19,58,082,36,20,30,201,28,24,04,253,18*77
23.07914710044861:$GPGSV,4,4,13,25,11,321,23*4D
23.11112141609192:$GPGLL,,,,,185528.00,V,N*49
23.745267868041992:$GPRMC,185529.00,V,,,,,,,140523,,,N*7E
23.745591640472412:$GPVTG,,,,,,,,,N*30
23.811495780944824:$GPGGA,185529.00,,,,,0,00,99.99,,,,,,*64
23.845221519470215:$GPGSA,A,1,,,,,,,,,,,,,99.99,99.99,99.99*30
23.912060499191284:$GPGSV,4,1,13,03,06,035,21,04,09,067,,05,05,203,18,06,68,021,28*7B
23.978544235229492:$GPGSV,4,2,13,09,12,098,17,11,55,265,18,12,41,304,22,14,01,157,21*7D
24.07826519012451:$GPGSV,4,3,13,17,37,100,27,19,58,082,35,20,30,201,28,24,04,253,17*7B
24.111415147781372:$GPGSV,4,4,13,25,11,321,21*4F
24.1116840839386:$GPGLL,,,,,185529.00,V,N*48
24.746172428131104:$GPRMC,185530.00,V,,,,,,,140523,,,N*76
24.746283531188965:$GPVTG,,,,,,,,,N*30
24.81308150291443:$GPGGA,185530.00,,,,,0,00,99.99,,,,,,*6C
24.84660267829895:$GPGSA,A,1,,,,,,,,,,,,,99.99,99.99,99.99*30
24.912773609161377:$GPGSV,4,1,13,03,06,035,19,04,09,067,19,05,05,203,,06,68,021,28*71
24.979989528656006:$GPGSV,4,2,13,09,12,098,16,11,55,265,18,12,41,304,19,14,01,157,24*71
25.07967448234558:$GPGSV,4,3,13,17,37,100,27,19,58,082,35,20,30,201,28,24,04,253,16*7A
25.11347484588623:$GPGSV,4,4,13,25,11,321,*4C
25.113930463790894:$GPGLL,,,,,185530.00,V,N*40
25.744220495224:$GPRMC,185531.00,V,,,,,,,140523,,,N*77
25.74454402923584:$GPVTG,,,,,,,,,N*30
25.81076955795288:$GPGGA,185531.00,,,,,0,00,99.99,,,,,,*6D
25.843969345092773:$GPGSA,A,1,,,,,,,,,,,,,99.99,99.99,99.99*30
25.9106228351593:$GPGSV,4,1,13,03,06,035,18,04,09,067,,05,05,203,,06,68,021,29*79
25.977556705474854:$GPGSV,4,2,13,09,12,098,21,11,55,265,,12,41,304,,14,01,157,*72
26.044017791748047:$GPGSV,4,3,13,17,37,100,26,19,58,082,36,20,30,201,29,24,04,253,15*7A
26.077582597732544:$GPGSV,4,4,13,25,11,321,19*44
26.10529613494873:$GPGLL,,,,,185531.00,V,N*41
26.74744176864624:$GPRMC,185532.00,V,,,,,,,140523,,,N*74
26.747765064239502:$GPVTG,,,,,,,,,N*30
26.81401300430298:$GPGGA,185532.00,,,,,0,00,99.99,,,,,,*6E
26.847654819488525:$GPGSA,A,1,,,,,,,,,,,,,99.99,99.99,99.99*30
26.91389751434326:$GPGSV,4,1,13,03,06,035,18,04,09,067,23,05,05,203,18,06,68,021,28*70
26.981056928634644:$GPGSV,4,2,13,09,12,098,20,11,55,265,22,12,41,304,,14,01,157,23*72
27.080490827560425:$GPGSV,4,3,13,17,37,100,26,19,58,082,36,20,30,201,29,24,04,253,21*7D
27.11393404006958:$GPGSV,4,4,13,25,11,321,18*45
27.114368677139282:$GPGLL,,,,,185532.00,V,N*42
27.740015506744385:$GPRMC,185533.00,V,,,,,,,140523,,,N*75
27.740281105041504:$GPVTG,,,,,,,,,N*30
27.806596755981445:$GPGGA,185533.00,,,,,0,00,99.99,,,,,,*6F
27.839797258377075:$GPGSA,A,1,,,,,,,,,,,,,99.99,99.99,99.99*30
27.907025575637817:$GPGSV,4,1,13,03,06,035,,04,09,067,19,05,05,203,,06,68,021,29*78
27.97361922264099:$GPGSV,4,2,13,09,12,098,,11,55,265,19,12,41,304,20,14,01,157,20*79
28.040085315704346:$GPGSV,4,3,13,17,37,100,26,19,58,082,35,20,30,201,29,24,04,253,*7D
28.073435068130493:$GPGSV,4,4,13,25,11,321,*4C
28.101165294647217:$GPGLL,,,,,185533.00,V,N*43
28.74532389640808:$GPRMC,185534.00,V,,,,,,,140523,,,N*72
28.745569467544556:$GPVTG,,,,,,,,,N*30
28.81194281578064:$GPGGA,185534.00,,,,,0,00,99.99,,,,,,*68
28.84562849998474:$GPGSA,A,1,,,,,,,,,,,,,99.99,99.99,99.99*30
28.91227149963379:$GPGSV,4,1,13,03,06,035,,04,09,067,19,05,05,203,19,06,68,021,28*71
28.978906393051147:$GPGSV,4,2,13,09,12,098,,11,55,265,21,12,41,304,,14,01,157,24*74
29.0452618598938:$GPGSV,4,3,13,17,37,100,26,19,58,082,35,20,30,201,29,24,04,253,19*75
29.078636407852173:$GPGSV,4,4,13,25,11,321,*4C
29.108354806900024:$GPGLL,,,,,185534.00,V,N*44
29.743273496627808:$GPRMC,185535.00,V,,,,,,,140523,,,N*73
29.74356698989868:$GPVTG,,,,,,,,,N*30
29.809963703155518:$GPGGA,185535.00,,,,,0,00,99.99,,,,,,*69
29.84328532218933:$GPGSA,A,1,,,,,,,,,,,,,99.99,99.99,99.99*30
29.910044193267822:$GPGSV,4,1,13,03,06,035,17,04,09,067,,05,05,203,17,06,68,021,28*71
29.9767804145813:$GPGSV,4,2,13,09,12,098,,11,55,265,19,12,41,304,19,14,01,157,*71
30.04325819015503:$GPGSV,4,3,13,17,37,100,27,19,58,082,35,20,30,201,29,24,04,253,18*75
30.076725482940674:$GPGSV,4,4,13,25,11,321,*4C
30.106480598449707:$GPGLL,,,,,185535.00,V,N*45
30.744256019592285:$GPRMC,185536.00,V,,,,,,,140523,,,N*70
30.744548797607422:$GPVTG,,,,,,,,,N*30
30.810617446899414:$GPGGA,185536.00,,,,,0,00,99.99,,,,,,*6A
30.84422755241394:$GPGSA,A,1,,,,,,,,,,,,,99.99,99.99,99.99*30
30.91080617904663:$GPGSV,4,1,13,03,06,035,,04,09,067,20,05,05,203,,06,68,021,29*72
30.977357387542725:$GPGSV,4,2,13,09,12,098,,11,55,265,,12,41,304,23,14,01,157,*70
31.044174432754517:$GPGSV,4,3,13,17,37,100,26,19,58,082,35,20,30,201,29,24,04,253,*7D
31.07751965522766:$GPGSV,4,4,13,25,11,321,*4C
31.100702047348022:$GPGLL,,,,,185536.00,V,N*46
31.741705656051636:$GPRMC,185537.00,V,,,,,,,140523,,,N*71
31.742066144943237:$GPVTG,,,,,,,,,N*30
31.80823040008545:$GPGGA,185537.00,,,,,0,00,99.99,,,,,,*6B
31.84170365333557:$GPGSA,A,1,,,,,,,,,,,,,99.99,99.99,99.99*30
31.908297538757324:$GPGSV,4,1,13,03,06,035,,04,09,067,18,05,05,203,18,06,68,021,28*71
31.975358724594116:$GPGSV,4,2,13,09,12,098,,11,55,265,,12,41,304,19,14,01,157,*79
32.04164123535156:$GPGSV,4,3,13,17,37,100,26,19,58,082,35,20,30,201,29,24,04,253,*7D
32.07518720626831:$GPGSV,4,4,13,25,11,321,*4C
32.10069179534912:$GPGLL,,,,,185537.00,V,N*47
32.74523186683655:$GPRMC,185538.00,V,,,,,,,140523,,,N*7E
32.74547481536865:$GPVTG,,,,,,,,,N*30
32.81185030937195:$GPGGA,185538.00,,,,,0,00,99.99,,,,,,*64
32.84537672996521:$GPGSA,A,1,,,,,,,,,,,,,99.99,99.99,99.99*30
32.91157150268555:$GPGSV,4,1,13,03,06,035,18,04,09,067,22,05,05,203,,06,68,021,28*78
32.97852182388306:$GPGSV,4,2,13,09,12,098,22,11,55,265,,12,41,304,20,14,01,157,*73
33.044987201690674:$GPGSV,4,3,13,17,37,100,26,19,58,082,35,20,30,201,29,24,04,253,*7D
33.07841634750366:$GPGSV,4,4,13,25,11,321,*4C
33.105886697769165:$GPGLL,,,,,185538.00,V,N*48
33.743263721466064:$GPRMC,185539.00,V,,,,,,,140523,,,N*7F
33.743473291397095:$GPVTG,,,,,,,,,N*30
33.81001615524292:$GPGGA,185539.00,,,,,0,00,99.99,,,,,,*65
33.84324407577515:$GPGSA,A,1,,,,,,,,,,,,,99.99,99.99,99.99*30
33.910056591033936:$GPGSV,4,1,13,03,06,035,17,04,09,067,20,05,05,203,21,06,68,021,28*76
33.97644066810608:$GPGSV,4,2,13,09,12,098,20,11,55,265,18,12,41,304,18,14,01,157,*73
34.07640886306763:$GPGSV,4,3,13,17,37,100,26,19,58,082,35,20,30,201,29,24,04,253,18*74
34.11036515235901:$GPGSV,4,4,13,25,11,321,*4C
34.11082935333252:$GPGLL,,,,,185539.00,V,N*49
34.7402777671814:$GPRMC,185540.00,V,,,,,,,140523,,,N*71
34.740601778030396:$GPVTG,,,,,,,,,N*30
34.806697368621826:$GPGGA,185540.00,,,,,0,00,99.99,,,,,,*6B
34.84038686752319:$GPGSA,A,1,,,,,,,,,,,,,99.99,99.99,99.99*30
34.90701723098755:$GPGSV,4,1,13,03,06,035,15,04,09,067,17,05,05,203,,06,68,021,28*73
34.9732129573822:$GPGSV,4,2,13,09,12,098,,11,55,265,15,12,41,304,,14,01,157,*75
35.040106773376465:$GPGSV,4,3,13,17,37,100,26,19,58,082,35,20,30,201,29,24,04,253,16*7A
35.07359600067139:$GPGSV,4,4,13,25,11,321,*4C
35.1010320186615:$GPGLL,,,,,185540.00,V,N*47
35.74471664428711:$GPRMC,185541.00,V,,,,,,,140523,,,N*70
35.745004177093506:$GPVTG,,,,,,,,,N*30
35.8115029335022:$GPGGA,185541.00,,,,,0,00,99.99,,,,,,*6A
35.84448194503784:$GPGSA,A,1,,,,,,,,,,,,,99.99,99.99,99.99*30
35.9114785194397:$GPGSV,4,1,13,03,06,035,13,04,09,067,13,05,05,203,,06,68,021,27*7E
35.97821760177612:$GPGSV,4,2,13,09,12,098,17,11,55,265,,12,41,304,15,14,01,157,17*75
36.04477310180664:$GPGSV,4,3,13,17,37,100,25,19,58,082,34,20,30,201,29,24,04,253,*7F
36.07823061943054:$GPGSV,4,4,13,25,11,321,*4C
36.10804867744446:$GPGLL,,,,,185541.00,V,N*46
36.745598554611206:$GPRMC,185542.00,V,,,,,,,140523,,,N*73
36.74592161178589:$GPVTG,,,,,,,,,N*30
36.812082290649414:$GPGGA,185542.00,,,,,0,00,99.99,,,,,,*69
36.84569787979126:$GPGSA,A,1,,,,,,,,,,,,,99.99,99.99,99.99*30
36.9123911857605:$GPGSV,4,1,13,03,06,035,,04,09,067,,05,05,203,17,06,68,021,27*78
36.978638648986816:$GPGSV,4,2,13,09,12,098,,11,55,265,,12,41,304,18,14,01,157,*78
37.04538035392761:$GPGSV,4,3,13,17,37,100,25,19,58,082,34,20,30,201,29,24,04,253,*7F
37.07859826087952:$GPGSV,4,4,13,25,11,321,*4C
37.10227918624878:$GPGLL,,,,,185542.00,V,N*45
37.7424099445343:$GPRMC,185543.00,V,,,,,,,140523,,,N*72
37.74270296096802:$GPVTG,,,,,,,,,N*30
37.809221267700195:$GPGGA,185543.00,,,,,0,00,99.99,,,,,,*68
37.84279274940491:$GPGSA,A,1,,,,,,,,,,,,,99.99,99.99,99.99*30
37.90904974937439:$GPGSV,4,1,13,03,06,035,,04,09,067,17,05,05,203,,06,68,021,27*78
37.975982666015625:$GPGSV,4,2,13,09,12,098,,11,55,265,,12,41,304,17,14,01,157,*77
38.042261362075806:$GPGSV,4,3,13,17,37,100,25,19,58,082,33,20,30,201,29,24,04,253,*78
38.07591962814331:$GPGSV,4,4,13,25,11,321,16*4B
38.10138750076294:$GPGLL,,,,,185543.00,V,N*44
38.741559743881226:$GPRMC,185544.00,V,,,,,,,140523,,,N*75
38.741883754730225:$GPVTG,,,,,,,,,N*30
38.807904958724976:$GPGGA,185544.00,,,,,0,00,99.99,,,,,,*6F
38.84154534339905:$GPGSA,A,1,,,,,,,,,,,,,99.99,99.99,99.99*30
38.90820026397705:$GPGSV,4,1,13,03,06,035,18,04,09,067,17,05,05,203,,06,68,021,27*71
38.97525477409363:$GPGSV,4,2,13,09,12,098,17,11,55,265,20,12,41,304,15,14,01,157,*71
39.04132556915283:$GPGSV,4,3,13,17,37,100,25,19,58,082,34,20,30,201,28,24,04,253,*7E
39.07467746734619:$GPGSV,4,4,13,25,11,321,16*4B
39.106801986694336:$GPGLL,,,,,185544.00,V,N*43
39.76219606399536:$GPRMC,185545.00,V,,,,,,,140523,,,N*74
39.762484073638916:$GPVTG,,,,,,,,,N*30
39.82863163948059:$GPGGA,185545.00,,,,,0,03,99.99,,,,,,*6D
39.86195516586304:$GPGSA,A,1,06,19,17,,,,,,,,,,99.99,99.99,1.00*09
39.929155349731445:$GPGSV,4,1,13,03,06,035,18,04,09,067,,05,05,203,18,06,68,021,27*7E
39.99547600746155:$GPGSV,4,2,13,09,12,098,17,11,55,265,,12,41,304,,14,01,157,*77
40.09520602226257:$GPGSV,4,3,13,17,37,100,25,19,58,082,34,20,30,201,29,24,04,253,17*79
40.13028645515442:$GPGSV,4,4,13,25,11,321,16*4B
40.13071942329407:$GPGLL,,,,,185545.00,V,N*42
40.75018048286438:$GPRMC,185546.00,V,,,,,,,140523,,,N*77
40.75044512748718:$GPVTG,,,,,,,,,N*30
40.81692171096802:$GPGGA,185546.00,,,,,0,03,99.99,,,,,,*6E
40.849939823150635:$GPGSA,A,1,06,19,17,,,,,,,,,,99.99,99.99,1.00*09
40.9171884059906:$GPGSV,4,1,13,03,06,035,16,04,09,067,19,05,05,203,18,06,68,021,27*78
41.01671886444092:$GPGSV,4,2,13,09,12,098,18,11,55,265,17,12,41,304,19,14,01,157,*76
41.08301758766174:$GPGSV,4,3,13,17,37,100,25,19,58,082,34,20,30,201,29,24,04,253,*7F
41.116375207901:$GPGSV,4,4,13,25,11,321,16*4B
41.12235355377197:$GPGLL,,,,,185546.00,V,N*41
41.74818253517151:$GPRMC,185547.00,V,,,,,,,140523,,,N*76
41.74847459793091:$GPVTG,,,,,,,,,N*30
41.814679861068726:$GPGGA,185547.00,,,,,0,03,99.99,,,,,,*6F
41.84805941581726:$GPGSA,A,1,06,19,17,,,,,,,,,,99.99,99.99,1.00*09
41.91511106491089:$GPGSV,4,1,14,03,05,035,21,04,09,067,24,05,05,203,16,06,68,021,27*78
41.98171925544739:$GPGSV,4,2,14,09,12,098,,11,55,265,,12,41,304,20,14,01,157,*74
42.081270694732666:$GPGSV,4,3,14,17,37,100,25,19,58,082,34,20,30,201,28,24,04,253,*79
42.114396810531616:$GPGSV,4,4,14,25,11,321,20,51,36,219,27*77
42.12972855567932:$GPGLL,,,,,185547.00,V,N*40
42.75035858154297:$GPRMC,185548.00,V,,,,,,,140523,,,N*79
42.75062584877014:$GPVTG,,,,,,,,,N*30
42.817002058029175:$GPGGA,185548.00,,,,,0,04,5.31,,,,,,*50
42.850526332855225:$GPGSA,A,1,06,19,17,20,,,,,,,,,11.86,5.31,10.60*04
42.9172899723053:$GPGSV,4,1,14,03,05,035,,04,09,067,21,05,05,203,,06,68,021,27*79
42.984015464782715:$GPGSV,4,2,14,09,12,098,,11,55,265,19,12,41,304,18,14,01,157,17*71
43.08337759971619:$GPGSV,4,3,14,17,37,100,25,19,58,082,34,20,30,201,28,24,04,253,21*7A
43.11676812171936:$GPGSV,4,4,14,25,11,321,,51,36,219,28*7A
43.13298296928406:$GPGLL,,,,,185548.00,V,N*4F
43.747002601623535:$GPRMC,185549.00,V,,,,,,,140523,,,N*78
43.7472448348999:$GPVTG,,,,,,,,,N*30
43.81337237358093:$GPGGA,185549.00,,,,,0,04,5.31,,,,,,*51
43.84701108932495:$GPGSA,A,1,06,19,17,20,,,,,,,,,11.86,5.31,10.60*04
43.91363525390625:$GPGSV,4,1,14,03,05,035,,04,09,067,,05,05,203,16,06,68,021,27*7D
43.980550050735474:$GPGSV,4,2,14,09,12,098,,11,55,265,,12,41,304,17,14,01,157,*70
44.046836137771606:$GPGSV,4,3,14,17,37,100,25,19,58,082,34,20,30,201,29,24,04,253,*78
44.11358070373535:$GPGSV,4,4,14,25,11,321,18,51,36,219,28*73
44.12562966346741:$GPGLL,,,,,185549.00,V,N*4E
44.749165296554565:$GPRMC,185550.00,V,,,,,,,140523,,,N*70
44.74946451187134:$GPVTG,,,,,,,,,N*30
44.8157856464386:$GPGGA,185550.00,,,,,0,04,5.31,,,,,,*59
44.84934854507446:$GPGSA,A,1,06,19,17,20,,,,,,,,,11.85,5.31,10.59*0D
44.91602635383606:$GPGSV,4,1,14,03,05,035,,04,09,067,21,05,05,203,22,06,67,021,27*76
45.01543998718262:$GPGSV,4,2,14,09,12,098,18,11,55,265,18,12,41,304,17,14,01,157,20*72
45.08227467536926:$GPGSV,4,3,14,17,37,100,25,19,58,082,34,20,30,201,28,24,04,253,*79
45.11583399772644:$GPGSV,4,4,14,25,11,321,17,51,36,219,29*7D
45.136178731918335:$GPGLL,,,,,185550.00,V,N*46
45.78135323524475:$GPRMC,185551.00,A,3938.28036,N,07957.13270,W,0.085,,140523,,,A*66
45.81476354598999:$GPVTG,,T,,M,0.085,N,0.158,K,A*22
45.88119173049927:$GPGGA,185551.00,3938.28036,N,07957.13270,W,1,04,5.31,307.8,M,-33.9,M,,*6D
45.947734117507935:$GPGSA,A,3,06,19,17,20,,,,,,,,,11.85,5.31,10.59*0F
46.014373540878296:$GPGSV,4,1,15,03,05,035,17,04,09,067,20,05,05,203,,06,67,021,27*70
46.08098292350769:$GPGSV,4,2,15,09,12,098,19,11,55,265,,12,41,304,19,14,01,157,20*75
46.148120164871216:$GPGSV,4,3,15,17,37,100,25,19,58,082,33,20,30,201,28,24,04,253,20*7D
46.2146475315094:$GPGSV,4,4,15,25,11,321,19,33,11,107,28,51,36,219,29*4E
46.252586364746094:$GPGLL,3938.28036,N,07957.13270,W,185551.00,A,A*73
46.78219676017761:$GPRMC,185552.00,A,3938.28043,N,07957.13251,W,0.123,,140523,,,A*69
46.81567645072937:$GPVTG,,T,,M,0.123,N,0.227,K,A*24
46.88244104385376:$GPGGA,185552.00,3938.28043,N,07957.13251,W,1,04,5.30,307.6,M,-33.9,M,,*60
46.949068784713745:$GPGSA,A,3,06,19,17,20,,,,,,,,,11.84,5.30,10.59*0F
47.015726804733276:$GPGSV,4,1,15,03,05,035,18,04,09,067,,05,05,203,19,06,67,021,27*75
47.08224558830261:$GPGSV,4,2,15,09,12,098,18,11,55,265,24,12,41,304,,14,01,157,18*71
47.14897346496582:$GPGSV,4,3,15,17,37,100,25,19,58,082,33,20,30,201,29,24,04,253,19*76
47.215657472610474:$GPGSV,4,4,15,25,11,321,18,33,11,107,28,51,36,219,28*4E
47.253331899642944:$GPGLL,3938.28043,N,07957.13251,W,185552.00,A,A*71
47.781424045562744:$GPRMC,185553.00,A,3938.27973,N,07957.13328,W,0.094,,140523,,,A*6F
47.81498908996582:$GPVTG,,T,,M,0.094,N,0.175,K,A*2D
47.88211941719055:$GPGGA,185553.00,3938.27973,N,07957.13328,W,1,04,5.30,307.6,M,-33.9,M,,*6B
47.948238372802734:$GPGSA,A,3,06,19,17,20,,,,,,,,,11.84,5.30,10.58*0E
48.0149450302124:$GPGSV,4,1,15,03,05,035,,04,09,067,,05,05,203,17,06,67,021,27*72
48.08163261413574:$GPGSV,4,2,15,09,12,098,17,11,55,265,21,12,41,304,17,14,01,157,*74
48.148311138153076:$GPGSV,4,3,15,17,37,100,25,19,58,082,33,20,30,201,29,24,04,253,*7E
48.214693784713745:$GPGSV,4,4,15,25,11,321,,33,11,107,27,51,36,219,27*47
48.24701762199402:$GPGLL,3938.27973,N,07957.13328,W,185553.00,A,A*7A
48.78459191322327:$GPRMC,185554.00,A,3938.27972,N,07957.13359,W,0.139,,140523,,,A*69
48.81802940368652:$GPVTG,,T,,M,0.139,N,0.258,K,A*27
48.884724378585815:$GPGGA,185554.00,3938.27972,N,07957.13359,W,1,04,5.30,307.3,M,-33.9,M,,*6E
48.95134878158569:$GPGSA,A,3,06,19,17,20,,,,,,,,,11.83,5.30,10.58*09
49.01801013946533:$GPGSV,4,1,15,03,05,035,20,04,09,067,18,05,05,203,,06,67,021,27*7F
49.08445453643799:$GPGSV,4,2,15,09,12,098,,11,55,265,26,12,41,304,20,14,01,157,18*78
49.15141701698303:$GPGSV,4,3,15,17,37,100,25,19,58,082,34,20,30,201,28,24,04,253,17*7E
49.21785640716553:$GPGSV,4,4,15,25,11,321,17,33,11,107,28,51,36,219,27*4E
49.25597429275513:$GPGLL,3938.27972,N,07957.13359,W,185554.00,A,A*7A
49.782161712646484:$GPRMC,185555.00,A,3938.27951,N,07957.13369,W,0.176,,140523,,,A*61
49.81547713279724:$GPVTG,,T,,M,0.176,N,0.325,K,A*27
49.882198095321655:$GPGGA,185555.00,3938.27951,N,07957.13369,W,1,04,5.29,306.8,M,-33.9,M,,*6F
49.94882249832153:$GPGSA,A,3,06,19,17,20,,,,,,,,,11.83,5.29,10.57*0E
50.01545023918152:$GPGSV,4,1,15,03,05,035,19,04,09,067,,05,05,203,,06,67,021,27*7C
50.08212351799011:$GPGSV,4,2,15,09,12,098,,11,55,265,25,12,41,304,19,14,01,157,*78
50.14864683151245:$GPGSV,4,3,15,17,37,100,25,19,58,082,33,20,30,201,28,24,04,253,15*7B
50.21530103683472:$GPGSV,4,4,15,25,11,321,17,33,11,107,28,51,36,219,28*41
50.24956464767456:$GPGLL,3938.27951,N,07957.13369,W,185555.00,A,A*79
50.78395628929138:$GPRMC,185556.00,A,3938.27947,N,07957.13352,W,0.257,,140523,,,A*6D
50.81748723983765:$GPVTG,,T,,M,0.257,N,0.476,K,A*26
50.884284019470215:$GPGGA,185556.00,3938.27947,N,07957.13352,W,1,04,5.29,306.2,M,-33.9,M,,*69
50.9508056640625:$GPGSA,A,3,06,19,17,20,,,,,,,,,11.82,5.29,10.57*0F
51.01741909980774:$GPGSV,4,1,15,03,05,035,16,04,09,067,19,05,05,203,,06,67,021,27*7B
51.08407735824585:$GPGSV,4,2,15,09,12,098,19,11,55,265,23,12,42,304,18,14,01,157,*74
51.15060305595398:$GPGSV,4,3,15,17,37,100,25,19,58,082,33,20,30,201,28,24,04,253,*7F
51.21717071533203:$GPGSV,4,4,15,25,11,321,16,33,11,107,27,51,36,219,27*40
51.2507700920105:$GPGLL,3938.27947,N,07957.13352,W,185556.00,A,A*75
51.78240656852722:$GPRMC,185557.00,A,3938.27953,N,07957.13362,W,0.155,,140523,,,A*6B
51.81575274467468:$GPVTG,,T,,M,0.155,N,0.288,K,A*20
51.88238596916199:$GPGGA,185557.00,3938.27953,N,07957.13362,W,1,04,5.29,305.3,M,-33.9,M,,*6C
51.94881987571716:$GPGSA,A,3,06,19,17,20,,,,,,,,,11.82,5.29,10.57*0F
52.01525688171387:$GPGSV,4,1,14,03,05,035,15,04,09,067,,05,05,203,,06,67,021,27*71
52.08190059661865:$GPGSV,4,2,14,09,12,098,16,11,55,265,22,12,42,304,17,14,01,157,*74
52.148709535598755:$GPGSV,4,3,14,17,37,100,25,19,58,082,33,20,30,201,27,24,04,253,*71
52.18207049369812:$GPGSV,4,4,14,25,11,321,14,33,11,107,27*7D
52.23572278022766:$GPGLL,3938.27953,N,07957.13362,W,185557.00,A,A*72
52.784144163131714:$GPRMC,185558.00,A,3938.27968,N,07957.13378,W,0.235,,140523,,,A*62
52.81762146949768:$GPVTG,,T,,M,0.235,N,0.436,K,A*26
52.8842396736145:$GPGGA,185558.00,3938.27968,N,07957.13378,W,1,04,5.29,304.7,M,-33.9,M,,*65
52.950759172439575:$GPGSA,A,3,06,19,17,20,,,,,,,,,11.81,5.29,10.56*0D
53.01737666130066:$GPGSV,4,1,14,03,05,035,14,04,09,067,20,05,05,203,,06,67,021,27*72
53.08421778678894:$GPGSV,4,2,14,09,12,098,14,11,55,265,23,12,42,304,15,14,01,157,*75
53.1509211063385:$GPGSV,4,3,14,17,37,100,24,19,58,082,33,20,30,201,27,24,04,253,*70
53.18422245979309:$GPGSV,4,4,14,25,11,321,14,33,11,107,27*7D
53.239930629730225:$GPGLL,3938.27968,N,07957.13378,W,185558.00,A,A*7E
53.78253364562988:$GPRMC,185559.00,A,3938.27972,N,07957.13390,W,0.056,,140523,,,A*69
53.815654039382935:$GPVTG,,T,,M,0.056,N,0.103,K,A*22
53.882468461990356:$GPGGA,185559.00,3938.27972,N,07957.13390,W,1,04,5.28,304.3,M,-33.9,M,,*6C
53.948851585388184:$GPGSA,A,3,06,19,17,20,,,,,,,,,11.81,5.28,10.56*0C
54.01563549041748:$GPGSV,4,1,14,03,05,035,,04,09,067,19,05,05,203,17,06,67,021,27*7B
54.08255910873413:$GPGSV,4,2,14,09,12,098,12,11,55,265,22,12,42,304,18,14,01,157,*7F
54.14907765388489:$GPGSV,4,3,14,17,37,100,23,19,58,082,33,20,30,201,27,24,04,253,*77
54.18243360519409:$GPGSV,4,4,14,25,11,321,14,33,11,107,27*7D
54.23803234100342:$GPGLL,3938.27972,N,07957.13390,W,185559.00,A,A*72
54.78683352470398:$GPRMC,185600.00,A,3938.27973,N,07957.13403,W,0.127,,140523,,,A*6D
54.820245027542114:$GPVTG,,T,,M,0.127,N,0.236,K,A*20
54.886942863464355:$GPGGA,185600.00,3938.27973,N,07957.13403,W,1,04,5.28,304.1,M,-33.9,M,,*6D
54.953205823898315:$GPGSA,A,3,06,19,17,20,,,,,,,,,11.80,5.28,10.55*0E
55.020254611968994:$GPGSV,4,1,14,03,05,035,,04,09,067,19,05,05,203,16,06,67,021,26*7B
55.08697009086609:$GPGSV,4,2,14,09,12,098,11,11,55,265,23,12,42,304,17,14,01,157,16*75
55.15307259559631:$GPGSV,4,3,14,17,37,100,23,19,58,082,33,20,30,201,27,24,04,253,*77
55.21987819671631:$GPGSV,4,4,14,25,11,321,13,33,11,107,27*7A
55.24469327926636:$GPGLL,3938.27973,N,07957.13403,W,185600.00,A,A*71
55.78257155418396:$GPRMC,185601.00,A,3938.27983,N,07957.13430,W,0.152,,140523,,,A*61
55.815940380096436:$GPVTG,,T,,M,0.152,N,0.282,K,A*2D
55.882548570632935:$GPGGA,185601.00,3938.27983,N,07957.13430,W,1,04,5.28,303.7,M,-33.9,M,,*62
55.949127435684204:$GPGSA,A,3,06,19,17,20,,,,,,,,,11.80,5.28,10.55*0E
56.015531063079834:$GPGSV,4,1,13,03,05,035,,04,09,067,18,05,05,203,,06,67,021,26*7A
56.08234882354736:$GPGSV,4,2,13,09,12,098,09,11,55,265,22,12,42,304,14,14,01,157,*7E
56.149205923080444:$GPGSV,4,3,13,17,36,100,23,19,58,082,32,20,30,201,27,24,04,253,*70
56.182358264923096:$GPGSV,4,4,13,25,11,321,13*4E
56.22235417366028:$GPGLL,3938.27983,N,07957.13430,W,185601.00,A,A*7F
56.78160262107849:$GPRMC,185602.00,A,3938.27992,N,07957.13432,W,0.152,,140523,,,A*60
56.814936876297:$GPVTG,,T,,M,0.152,N,0.282,K,A*2D
56.88162302970886:$GPGGA,185602.00,3938.27992,N,07957.13432,W,1,04,5.28,302.9,M,-33.9,M,,*6C
56.94819736480713:$GPGSA,A,3,06,19,17,20,,,,,,,,,11.79,5.28,10.54*09
57.01460099220276:$GPGSV,4,1,13,03,05,035,,04,09,067,17,05,05,203,,06,67,021,26*75
57.08130764961243:$GPGSV,4,2,13,09,12,098,08,11,55,265,21,12,42,304,14,14,01,157,*7C
57.14805507659912:$GPGSV,4,3,13,17,36,100,23,19,58,082,32,20,30,201,28,24,04,253,17*79
57.18151497840881:$GPGSV,4,4,13,25,11,321,12*4F
57.223599433898926:$GPGLL,3938.27992,N,07957.13432,W,185602.00,A,A*7E
57.7809796333313:$GPRMC,185603.00,A,3938.27990,N,07957.13421,W,0.148,,140523,,,A*6A
57.81393337249756:$GPVTG,,T,,M,0.148,N,0.274,K,A*2F
57.88107347488403:$GPGGA,185603.00,3938.27990,N,07957.13421,W,1,04,5.27,302.9,M,-33.9,M,,*62
57.94735360145569:$GPGSA,A,3,06,19,17,20,,,,,,,,,11.79,5.27,10.54*06
58.014169692993164:$GPGSV,4,1,13,03,05,035,,04,09,067,17,05,05,203,,06,67,021,26*75
58.08049774169922:$GPGSV,4,2,13,09,12,098,,11,55,265,22,12,42,304,,14,01,157,*72
58.147552490234375:$GPGSV,4,3,13,17,36,100,22,19,58,082,32,20,30,201,28,24,04,253,16*79
58.18087124824524:$GPGSV,4,4,13,25,11,321,11*4C
58.21857929229736:$GPGLL,3938.27990,N,07957.13421,W,185603.00,A,A*7F
58.784478425979614:$GPRMC,185604.00,A,3938.28001,N,07957.13419,W,0.201,,140523,,,A*66
58.81803059577942:$GPVTG,,T,,M,0.201,N,0.372,K,A*26
58.88454556465149:$GPGGA,185604.00,3938.28001,N,07957.13419,W,1,04,5.27,302.4,M,-33.9,M,,*6D
58.951202630996704:$GPGSA,A,3,06,19,17,20,,,,,,,,,11.78,5.27,10.54*07
59.017860651016235:$GPGSV,4,1,13,03,05,035,,04,09,067,16,05,05,203,,06,67,021,26*74
59.08458971977234:$GPGSV,4,2,13,09,12,098,,11,55,265,22,12,42,304,17,14,01,157,*74
59.15125036239624:$GPGSV,4,3,13,17,36,100,22,19,58,082,32,20,31,201,27,24,04,253,13*72
59.184569358825684:$GPGSV,4,4,13,25,11,321,*4C
59.2224235534668:$GPGLL,3938.28001,N,07957.13419,W,185604.00,A,A*7D
59.8019483089447:$GPRMC,185605.00,A,3938.28013,N,07957.13425,W,0.221,,140523,,,A*69
59.835211992263794:$GPVTG,,T,,M,0.221,N,0.410,K,A*27
59.901670932769775:$GPGGA,185605.00,3938.28013,N,07957.13425,W,1,04,5.27,302.2,M,-33.9,M,,*66
59.96850371360779:$GPGSA,A,3,06,19,17,20,,,,,,,,,11.78,5.27,10.53*00
60.03500318527222:$GPGSV,4,1,13,03,05,035,,04,09,067,16,05,05,203,,06,67,021,25*77
60.101799726486206:$GPGSV,4,2,13,09,12,098,,11,55,265,21,12,42,304,16,14,01,157,*76
60.16862940788269:$GPGSV,4,3,13,17,36,100,23,19,58,082,32,20,31,201,28,24,04,253,12*7D
60.20190215110779:$GPGSV,4,4,13,25,11,321,*4C
60.23977303504944:$GPGLL,3938.28013,N,07957.13425,W,185605.00,A,A*70
60.78677225112915:$GPRMC,185606.00,A,3938.28009,N,07957.13431,W,1.061,,140523,,,A*63
60.820059299468994:$GPVTG,,T,,M,1.061,N,1.964,K,A*2F
60.88678860664368:$GPGGA,185606.00,3938.28009,N,07957.13431,W,1,04,5.26,303.2,M,-33.9,M,,*6B
60.95320153236389:$GPGSA,A,3,06,19,17,20,,,,,,,,,11.77,5.26,10.53*0E
61.01973223686218:$GPGSV,4,1,13,03,05,035,,04,09,067,,05,05,203,,06,67,021,26*73
61.086236000061035:$GPGSV,4,2,13,09,12,098,18,11,55,265,22,12,42,304,15,14,01,157,*7F
61.15317177772522:$GPGSV,4,3,13,17,36,100,23,19,58,082,32,20,31,201,27,24,04,253,13*73
61.18649744987488:$GPGSV,4,4,13,25,11,321,*4C
61.22459650039673:$GPGLL,3938.28009,N,07957.13431,W,185606.00,A,A*7D
61.78382921218872:$GPRMC,185607.00,A,3938.27987,N,07957.13400,W,0.083,,140523,,,A*6D
61.81712079048157:$GPVTG,,T,,M,0.083,N,0.153,K,A*2F
61.8837673664093:$GPGGA,185607.00,3938.27987,N,07957.13400,W,1,03,3.13,303.6,M,-33.9,M,,*6B
61.95025181770325:$GPGSA,A,2,06,19,20,,,,,,,,,,3.29,3.13,1.00*07
62.017099142074585:$GPGSV,4,1,13,03,05,035,,04,09,067,19,05,05,203,17,06,67,021,26*7D
62.08358097076416:$GPGSV,4,2,13,09,12,098,17,11,55,265,22,12,42,304,20,14,01,157,*76
62.15022540092468:$GPGSV,4,3,13,17,36,100,21,19,58,082,32,20,31,201,28,24,04,253,*7C
62.18367314338684:$GPGSV,4,4,13,25,11,321,19*44
62.22139883041382:$GPGLL,3938.27987,N,07957.13400,W,185607.00,A,A*7E
62.78327703475952:$GPRMC,185608.00,A,3938.27972,N,07957.13399,W,0.402,,140523,,,A*62
62.81655287742615:$GPVTG,,T,,M,0.402,N,0.745,K,A*23
62.88335466384888:$GPGGA,185608.00,3938.27972,N,07957.13399,W,1,03,3.13,303.8,M,-33.9,M,,*67
62.94989323616028:$GPGSA,A,2,06,19,20,,,,,,,,,,3.29,3.13,1.00*07
63.01649808883667:$GPGSV,4,1,14,03,05,035,,04,09,067,,05,05,203,16,06,67,021,26*73
63.08305621147156:$GPGSV,4,2,14,09,12,098,16,11,55,265,22,12,42,304,18,14,01,157,19*73
63.14959955215454:$GPGSV,4,3,14,17,36,100,21,19,58,082,32,20,31,201,27,24,04,253,*74
63.183159589767456:$GPGSV,4,4,14,25,11,321,,51,36,219,27*75
63.232651233673096:$GPGLL,3938.27972,N,07957.13399,W,185608.00,A,A*7C
63.78337049484253:$GPRMC,185609.00,A,3938.27964,N,07957.13390,W,0.391,,140523,,,A*60
63.81688141822815:$GPVTG,,T,,M,0.391,N,0.724,K,A*29
63.88350749015808:$GPGGA,185609.00,3938.27964,N,07957.13390,W,1,03,3.13,303.8,M,-33.9,M,,*68
63.94999146461487:$GPGSA,A,2,06,19,20,,,,,,,,,,3.29,3.13,1.00*07
64.01665711402893:$GPGSV,4,1,14,03,05,035,18,04,09,067,,05,05,203,,06,67,021,26*7D
64.08315443992615:$GPGSV,4,2,14,09,12,098,16,11,55,265,23,12,42,304,17,14,01,157,*75
64.14987015724182:$GPGSV,4,3,14,17,36,100,21,19,58,082,32,20,31,201,28,24,04,253,*7B
64.18342614173889:$GPGSV,4,4,14,25,11,321,17,51,36,219,28*7C
64.23279595375061:$GPGLL,3938.27964,N,07957.13390,W,185609.00,A,A*73
64.78651404380798:$GPRMC,185610.00,A,3938.27974,N,07957.13392,W,0.044,,140523,,,A*60
64.81984257698059:$GPVTG,,T,,M,0.044,N,0.082,K,A*29
64.88614273071289:$GPGGA,185610.00,3938.27974,N,07957.13392,W,1,03,3.13,303.8,M,-33.9,M,,*63
64.95285034179688:$GPGSA,A,2,06,19,20,,,,,,,,,,3.29,3.13,1.00*07
65.01943850517273:$GPGSV,4,1,14,03,05,035,17,04,09,067,17,05,05,203,24,06,67,021,26*72
65.08631920814514:$GPGSV,4,2,14,09,12,098,16,11,55,265,23,12,42,304,,14,01,157,*73
65.1528172492981:$GPGSV,4,3,14,17,36,100,21,19,58,082,32,20,31,201,28,24,04,253,17*7D
65.18673372268677:$GPGSV,4,4,14,25,11,321,17,51,36,219,28*7C
65.23980689048767:$GPGLL,3938.27974,N,07957.13392,W,185610.00,A,A*78
65.78238320350647:$GPRMC,185611.00,A,3938.28004,N,07957.13393,W,0.310,,140523,,,A*63
65.81599593162537:$GPVTG,,T,,M,0.310,N,0.574,K,A*27
65.88273668289185:$GPGGA,185611.00,3938.28004,N,07957.13393,W,1,03,3.13,303.5,M,-33.9,M,,*6F
65.9492073059082:$GPGSA,A,2,06,19,20,,,,,,,,,,3.29,3.13,1.00*07
66.01583337783813:$GPGSV,4,1,14,03,05,035,,04,09,067,,05,05,203,21,06,67,021,26*77
66.08231997489929:$GPGSV,4,2,14,09,12,098,16,11,55,265,23,12,42,304,18,14,01,157,20*78
66.14906144142151:$GPGSV,4,3,14,17,36,100,21,19,58,082,32,20,31,201,28,24,04,253,*7B
66.18253779411316:$GPGSV,4,4,14,25,11,321,15,51,36,219,28*7E
66.23397564888:$GPGLL,3938.28004,N,07957.13393,W,185611.00,A,A*79
66.78442621231079:$GPRMC,185612.00,A,3938.28037,N,07957.13390,W,0.319,,140523,,,A*6A
66.81778955459595:$GPVTG,,T,,M,0.319,N,0.590,K,A*24
66.8844244480133:$GPGGA,185612.00,3938.28037,N,07957.13390,W,1,03,3.13,303.1,M,-33.9,M,,*6B
66.95077276229858:$GPGSA,A,2,06,19,20,,,,,,,,,,3.29,3.13,1.00*07
67.01745653152466:$GPGSV,4,1,14,03,05,035,19,04,09,067,19,05,05,203,16,06,67,021,26*73
67.084303855896:$GPGSV,4,2,14,09,12,098,,11,55,265,23,12,42,304,16,14,01,157,22*73
67.15076470375061:$GPGSV,4,3,14,17,36,100,21,19,58,082,32,20,31,201,28,24,04,253,*7B
67.1845018863678:$GPGSV,4,4,14,25,11,321,15,51,36,219,28*7E
67.23797607421875:$GPGLL,3938.28037,N,07957.13390,W,185612.00,A,A*79
67.78153896331787:$GPRMC,185613.00,A,3938.28078,N,07957.13411,W,0.095,,140523,,,A*69
67.81489038467407:$GPVTG,,T,,M,0.095,N,0.175,K,A*2C
67.88143920898438:$GPGGA,185613.00,3938.28078,N,07957.13411,W,1,03,3.13,302.0,M,-33.9,M,,*6F
67.94787764549255:$GPGSA,A,2,06,19,20,,,,,,,,,,3.29,3.13,1.00*07
68.01475596427917:$GPGSV,4,1,14,03,05,035,,04,09,067,19,05,05,203,,06,67,021,26*7C
68.08125567436218:$GPGSV,4,2,14,09,12,098,17,11,55,265,23,12,42,304,22,14,01,157,22*72
68.14785885810852:$GPGSV,4,3,14,17,36,100,22,19,58,082,32,20,31,201,28,24,04,253,17*7E
68.18162870407104:$GPGSV,4,4,14,25,11,321,15,51,36,219,28*7E
68.23499584197998:$GPGLL,3938.28078,N,07957.13411,W,185613.00,A,A*7D
68.78412699699402:$GPRMC,185614.00,A,3938.28092,N,07957.13391,W,0.341,,140523,,,A*6F
68.81742906570435:$GPVTG,,T,,M,0.341,N,0.632,K,A*22
68.88434314727783:$GPGGA,185614.00,3938.28092,N,07957.13391,W,1,03,3.13,301.9,M,-33.9,M,,*69
68.95083832740784:$GPGSA,A,2,06,19,20,,,,,,,,,,3.29,3.13,1.00*07
69.017493724823:$GPGSV,4,1,13,03,05,035,,04,09,067,19,05,05,203,,06,67,021,26*7B
69.08390378952026:$GPGSV,4,2,13,09,12,098,17,11,55,265,23,12,42,304,20,14,01,157,*77
69.15063524246216:$GPGSV,4,3,13,17,36,100,21,19,58,082,32,20,31,201,28,24,04,253,17*7A
69.18391299247742:$GPGSV,4,4,13,25,11,321,15*48
69.22210812568665:$GPGLL,3938.28092,N,07957.13391,W,185614.00,A,A*71
69.78313899040222:$GPRMC,185615.00,A,3938.28167,N,07957.13467,W,1.814,,140523,,,A*61
69.81653451919556:$GPVTG,,T,,M,1.814,N,3.359,K,A*23
69.88307332992554:$GPGGA,185615.00,3938.28167,N,07957.13467,W,1,03,3.13,302.0,M,-33.9,M,,*67
69.94963455200195:$GPGSA,A,2,06,19,20,,,,,,,,,,3.29,3.13,1.00*07
70.01631951332092:$GPGSV,4,1,13,03,05,035,20,04,09,067,,05,05,203,22,06,67,021,25*72
70.08304405212402:$GPGSV,4,2,13,09,12,098,17,11,55,265,23,12,42,304,19,14,01,157,*7D
70.14966583251953:$GPGSV,4,3,13,17,36,100,21,19,58,082,31,20,31,201,28,24,04,253,*7F
70.18300914764404:$GPGSV,4,4,13,25,11,321,*4C
70.21677589416504:$GPGLL,3938.28167,N,07957.13467,W,185615.00,A,A*75
70.74405837059021:$GPRMC,185616.00,V,,,,,,,140523,,,N*71
70.74432492256165:$GPVTG,,,,,,,,,N*30
70.81072521209717:$GPGGA,185616.00,,,,,0,00,99.99,,,,,,*6B
70.84424948692322:$GPGSA,A,1,,,,,,,,,,,,,99.99,99.99,99.99*30
70.9106342792511:$GPGSV,4,1,13,03,05,035,,04,09,067,,05,05,203,,06,67,021,25*70
70.97730493545532:$GPGSV,4,2,13,09,12,098,,11,55,265,23,12,42,304,,14,01,157,*73
71.04391574859619:$GPGSV,4,3,13,17,36,100,21,19,58,082,31,20,31,201,28,24,04,253,17*79
71.0772316455841:$GPGSV,4,4,13,25,11,321,18*45
71.10287308692932:$GPGLL,,,,,185616.00,V,N*47
71.74224257469177:$GPRMC,185617.00,V,,,,,,,140523,,,N*70
71.74256491661072:$GPVTG,,,,,,,,,N*30
71.80887746810913:$GPGGA,185617.00,,,,,0,00,99.99,,,,,,*6A
71.84227442741394:$GPGSA,A,1,,,,,,,,,,,,,99.99,99.99,99.99*30
71.90899872779846:$GPGSV,4,1,13,03,05,035,,04,09,067,,05,05,203,,06,67,021,25*70
71.97565412521362:$GPGSV,4,2,13,09,12,098,,11,55,265,22,12,42,304,18,14,01,157,18*72
72.04226732254028:$GPGSV,4,3,13,17,36,100,21,19,58,082,31,20,31,201,28,24,04,253,*7F
72.07565259933472:$GPGSV,4,4,13,25,11,321,16*4B
72.10286664962769:$GPGLL,,,,,185617.00,V,N*46
72.74437403678894:$GPRMC,185618.00,V,,,,,,,140523,,,N*7F
72.7446653842926:$GPVTG,,,,,,,,,N*30
72.81071281433105:$GPGGA,185618.00,,,,,0,00,99.99,,,,,,*65
72.84430170059204:$GPGSA,A,1,,,,,,,,,,,,,99.99,99.99,99.99*30
72.91100883483887:$GPGSV,4,1,13,03,05,035,,04,09,067,,05,05,203,20,06,67,021,25*72
72.97741103172302:$GPGSV,4,2,13,09,12,098,,11,55,265,22,12,42,304,18,14,01,157,16*7C
73.04418778419495:$GPGSV,4,3,13,17,36,100,21,19,58,082,31,20,31,201,27,24,04,253,*70
73.0775306224823:$GPGSV,4,4,13,25,11,321,15*48
73.10756707191467:$GPGLL,,,,,185618.00,V,N*49
73.74000000953674:$GPRMC,185619.00,V,,,,,,,140523,,,N*7E
73.74026608467102:$GPVTG,,,,,,,,,N*30
73.80670189857483:$GPGGA,185619.00,,,,,0,00,99.99,,,,,,*64
73.84009027481079:$GPGSA,A,1,,,,,,,,,,,,,99.99,99.99,99.99*30
73.90673327445984:$GPGSV,4,1,13,03,05,035,27,04,09,067,,05,05,203,17,06,67,021,25*73
73.97337818145752:$GPGSV,4,2,13,09,12,098,,11,55,265,22,12,42,304,,14,01,157,*72
74.03996014595032:$GPGSV,4,3,13,17,36,100,20,19,58,082,31,20,31,201,27,24,04,253,*71
74.07342410087585:$GPGSV,4,4,13,25,11,321,*4C
74.09900283813477:$GPGLL,,,,,185619.00,V,N*48
74.74089455604553:$GPRMC,185620.00,V,,,,,,,140523,,,N*74
74.74109649658203:$GPVTG,,,,,,,,,N*30
74.80752277374268:$GPGGA,185620.00,,,,,0,00,99.99,,,,,,*6E
74.84093022346497:$GPGSA,A,1,,,,,,,,,,,,,99.99,99.99,99.99*30
74.9074535369873:$GPGSV,4,1,13,03,05,035,,04,09,067,24,05,05,203,,06,67,021,25*76
74.97435545921326:$GPGSV,4,2,13,09,12,098,,11,55,265,23,12,42,304,,14,01,157,*73
75.0409984588623:$GPGSV,4,3,13,17,36,100,21,19,58,082,30,20,31,201,27,24,04,253,*71
75.07436275482178:$GPGSV,4,4,13,25,11,321,*4C
75.0979495048523:$GPGLL,,,,,185620.00,V,N*42
75.74314212799072:$GPRMC,185621.00,V,,,,,,,140523,,,N*75
75.74328017234802:$GPVTG,,,,,,,,,N*30
75.809743642807:$GPGGA,185621.00,,,,,0,00,99.99,,,,,,*6F
75.84333610534668:$GPGSA,A,1,,,,,,,,,,,,,99.99,99.99,99.99*30
75.91028261184692:$GPGSV,4,1,13,03,05,035,,04,09,067,20,05,05,203,23,06,67,021,26*70
75.9769983291626:$GPGSV,4,2,13,09,12,098,22,11,55,265,23,12,42,304,21,14,01,157,*70
76.04330635070801:$GPGSV,4,3,13,17,36,100,21,19,58,082,31,20,31,201,26,24,04,253,*71
76.07665061950684:$GPGSV,4,4,13,25,11,321,*4C
76.10646224021912:$GPGLL,,,,,185621.00,V,N*43
76.74543190002441:$GPRMC,185622.00,V,,,,,,,140523,,,N*76
76.74567937850952:$GPVTG,,,,,,,,,N*30
76.81212401390076:$GPGGA,185622.00,,,,,0,00,99.99,,,,,,*6C
76.84575152397156:$GPGSA,A,1,,,,,,,,,,,,,99.99,99.99,99.99*30
76.91218566894531:$GPGSV,4,1,13,03,05,035,27,04,09,067,,05,05,203,,06,67,021,26*76
76.9789342880249:$GPGSV,4,2,13,09,12,098,,11,55,265,23,12,42,304,24,14,01,157,18*7C
77.04557871818542:$GPGSV,4,3,13,17,36,100,22,19,58,082,31,20,31,201,25,24,04,253,22*71
77.07890176773071:$GPGSV,4,4,13,25,11,321,*4C
77.1085958480835:$GPGLL,,,,,185622.00,V,N*40
77.74594020843506:$GPRMC,185623.00,V,,,,,,,140523,,,N*77
77.74623417854309:$GPVTG,,,,,,,,,N*30
77.81254649162292:$GPGGA,185623.00,,,,,0,00,99.99,,,,,,*6D
77.84594869613647:$GPGSA,A,1,,,,,,,,,,,,,99.99,99.99,99.99*30
77.91269183158875:$GPGSV,4,1,13,03,05,035,26,04,09,067,20,05,05,203,,06,67,021,26*75
77.97932267189026:$GPGSV,4,2,13,09,12,098,,11,55,265,24,12,42,304,21,14,01,157,19*7F
78.07882857322693:$GPGSV,4,3,13,17,36,100,22,19,58,082,30,20,31,201,23,24,04,253,23*77
78.07922434806824:$GPGSV,4,4,13,25,11,321,*4C
78.11116099357605:$GPGLL,,,,,185623.00,V,N*41
78.74498534202576:$GPRMC,185624.00,V,,,,,,,140523,,,N*70
78.74530243873596:$GPVTG,,,,,,,,,N*30
78.81143021583557:$GPGGA,185624.00,,,,,0,00,99.99,,,,,,*6A
78.84512567520142:$GPGSA,A,1,,,,,,,,,,,,,99.99,99.99,99.99*30
78.91146612167358:$GPGSV,4,1,13,03,05,035,23,04,09,067,19,05,05,203,17,06,67,021,26*7C
78.97865176200867:$GPGSV,4,2,13,09,12,098,19,11,55,265,23,12,42,304,18,14,01,157,18*7B
79.07781219482422:$GPGSV,4,3,13,17,36,100,21,19,58,082,31,20,31,201,22,24,04,253,*75
79.11177039146423:$GPGSV,4,4,13,25,11,321,*4C
79.11203360557556:$GPGLL,,,,,185624.00,V,N*46
79.74702835083008:$GPRMC,185625.00,V,,,,,,,140523,,,N*71
79.74727129936218:$GPVTG,,,,,,,,,N*30
79.81366968154907:$GPGGA,185625.00,,,,,0,00,99.99,,,,,,*6B
79.84724497795105:$GPGSA,A,1,,,,,,,,,,,,,99.99,99.99,99.99*30
79.91343760490417:$GPGSV,4,1,13,03,05,035,19,04,09,067,16,05,05,203,,06,67,021,26*7C
79.98004674911499:$GPGSV,4,2,13,09,12,098,17,11,55,265,23,12,42,304,17,14,01,157,26*77
80.0799605846405:$GPGSV,4,3,13,17,36,100,21,19,58,082,31,20,31,201,22,24,04,253,18*7C
80.11399245262146:$GPGSV,4,4,13,25,11,321,*4C
80.11441445350647:$GPGLL,,,,,185625.00,V,N*47
80.74792003631592:$GPRMC,185626.00,V,,,,,,,140523,,,N*72
80.7481153011322:$GPVTG,,,,,,,,,N*30
80.81437397003174:$GPGGA,185626.00,,,,,0,00,99.99,,,,,,*68
80.84795355796814:$GPGSA,A,1,,,,,,,,,,,,,99.99,99.99,99.99*30
80.91499471664429:$GPGSV,4,1,13,03,05,035,,04,09,067,17,05,05,203,18,06,67,021,27*7D
80.98173499107361:$GPGSV,4,2,13,09,12,098,15,11,55,265,23,12,42,304,18,14,01,157,22*7E
81.08092904090881:$GPGSV,4,3,13,17,36,100,20,19,58,082,31,20,31,201,23,24,04,253,18*7C
81.114901304245:$GPGSV,4,4,13,25,11,321,*4C
81.11535024642944:$GPGLL,,,,,185626.00,V,N*44
81.74314665794373:$GPRMC,185627.00,V,,,,,,,140523,,,N*73
81.74332690238953:$GPVTG,,,,,,,,,N*30
81.80976724624634:$GPGGA,185627.00,,,,,0,00,99.99,,,,,,*69
81.84310674667358:$GPGSA,A,1,,,,,,,,,,,,,99.99,99.99,99.99*30
81.91000008583069:$GPGSV,4,1,14,03,05,035,26,04,09,067,21,05,05,203,20,06,67,021,28*7F
81.97658133506775:$GPGSV,4,2,14,09,12,098,18,11,55,265,23,12,42,304,17,14,01,157,*7B
82.07626461982727:$GPGSV,4,3,14,17,36,100,20,19,58,082,31,20,31,201,22,24,04,253,17*75
82.1097047328949:$GPGSV,4,4,14,25,11,321,,51,36,219,27*75
82.12385320663452:$GPGLL,,,,,185627.00,V,N*45
82.74937891960144:$GPRMC,185628.00,V,,,,,,,140523,,,N*7C
82.7495539188385:$GPVTG,,,,,,,,,N*30
82.81594467163086:$GPGGA,185628.00,,,,,0,00,99.99,,,,,,*66
82.84941983222961:$GPGSA,A,1,,,,,,,,,,,,,99.99,99.99,99.99*30
82.91618418693542:$GPGSV,4,1,14,03,05,035,22,04,09,067,18,05,05,203,,06,67,021,27*7C
82.98302912712097:$GPGSV,4,2,14,09,12,098,,11,55,265,22,12,42,304,16,14,01,157,*72
83.04973220825195:$GPGSV,4,3,14,17,36,100,20,19,58,082,30,20,31,201,22,24,04,253,15*76
83.11605930328369:$GPGSV,4,4,14,25,11,321,,51,36,219,27*75
83.12602758407593:$GPGLL,,,,,185628.00,V,N*4A
83.7446653842926:$GPRMC,185629.00,V,,,,,,,140523,,,N*7D
83.74495434761047:$GPVTG,,,,,,,,,N*30
83.81127858161926:$GPGGA,185629.00,,,,,0,00,99.99,,,,,,*67
83.84466242790222:$GPGSA,A,1,,,,,,,,,,,,,99.99,99.99,99.99*30
83.91130352020264:$GPGSV,4,1,15,03,05,035,,04,09,067,18,05,05,203,19,06,67,021,27*75
83.97812128067017:$GPGSV,4,2,15,09,12,098,,11,55,265,22,12,42,304,17,14,01,157,21*71
84.07754135131836:$GPGSV,4,3,15,17,36,100,21,19,58,082,30,20,31,201,22,24,04,253,14*77
84.11111760139465:$GPGSV,4,4,15,25,11,321,,33,11,107,27,51,36,219,27*47
84.13664031028748:$GPGLL,,,,,185629.00,V,N*4B
84.74800729751587:$GPRMC,185630.00,V,,,,,,,140523,,,N*75
84.74841690063477:$GPVTG,,,,,,,,,N*30
84.81487536430359:$GPGGA,185630.00,,,,,0,00,99.99,,,,,,*6F
84.84817671775818:$GPGSA,A,1,,,,,,,,,,,,,99.99,99.99,99.99*30
84.91505217552185:$GPGSV,4,1,15,03,05,035,22,04,09,067,18,05,05,203,19,06,67,021,27*75
84.98169779777527:$GPGSV,4,2,15,09,12,098,,11,55,265,22,12,42,304,16,14,01,157,*73
85.0483603477478:$GPGSV,4,3,15,17,36,100,21,19,58,082,30,20,31,201,23,24,04,253,*73
85.11481523513794:$GPGSV,4,4,15,25,11,321,,33,11,107,27,51,36,219,28*48
85.13821053504944:$GPGLL,,,,,185630.00,V,N*43
85.74087405204773:$GPRMC,185631.00,V,,,,,,,140523,,,N*74
85.74120473861694:$GPVTG,,,,,,,,,N*30
85.80745148658752:$GPGGA,185631.00,,,,,0,00,99.99,,,,,,*6E
85.84079122543335:$GPGSA,A,1,,,,,,,,,,,,,99.99,99.99,99.99*30
85.90772461891174:$GPGSV,4,1,15,03,05,035,21,04,09,066,19,05,05,203,19,06,67,021,27*76
85.97443199157715:$GPGSV,4,2,15,09,12,098,,11,55,265,22,12,42,304,17,14,01,157,23*73
86.07387518882751:$GPGSV,4,3,15,17,36,100,,19,58,082,30,20,31,201,24,24,04,253,23*76
86.10777807235718:$GPGSV,4,4,15,25,11,321,23,33,11,107,27,51,36,219,28*49
86.1351625919342:$GPGLL,,,,,185631.00,V,N*42
86.76830530166626:$GPRMC,185632.00,V,,,,,,,140523,,,N*77
86.76856637001038:$GPVTG,,,,,,,,,N*30
86.83499932289124:$GPGGA,185632.00,,,,,0,03,3.12,,,,,,*5E
86.86856937408447:$GPGSA,A,1,06,19,20,,,,,,,,,,3.28,3.12,1.00*04
86.93516254425049:$GPGSV,4,1,16,03,05,035,,04,09,066,19,05,06,203,,06,67,021,27*7D
87.00179886817932:$GPGSV,4,2,16,09,12,098,18,11,55,265,23,12,42,304,17,14,01,157,*79
87.10158157348633:$GPGSV,4,3,16,17,36,100,23,19,58,082,30,20,31,201,24,24,04,253,27*70
87.16823267936707:$GPGSV,4,4,16,25,11,321,20,33,11,107,28,46,40,207,27,51,36,219,28*70
87.17619585990906:$GPGLL,,,,,185632.00,V,N*41
87.74108362197876:$GPRMC,185633.00,V,,,,,,,140523,,,N*76
87.74126887321472:$GPVTG,,,,,,,,,N*30
87.80794835090637:$GPGGA,185633.00,,,,,0,00,99.99,,,,,,*6C
87.8414351940155:$GPGSA,A,1,,,,,,,,,,,,,99.99,99.99,99.99*30
87.9081163406372:$GPGSV,4,1,16,03,05,035,27,04,09,066,,05,06,203,20,06,67,022,27*71
87.97470808029175:$GPGSV,4,2,16,09,12,098,,11,55,265,23,12,42,304,,14,01,157,21*75
88.0410885810852:$GPGSV,4,3,16,17,36,100,22,19,58,082,30,20,31,201,24,24,04,253,*74
88.1424720287323:$GPGSV,4,4,16,25,11,321,,33,11,107,28,46,40,207,28,51,36,219,28*7D
88.14282655715942:$GPGLL,,,,,185633.00,V,N*40
88.74430298805237:$GPRMC,185634.00,V,,,,,,,140523,,,N*71
88.74459671974182:$GPVTG,,,,,,,,,N*30
88.81103324890137:$GPGGA,185634.00,,,,,0,00,99.99,,,,,,*6B
88.84448170661926:$GPGSA,A,1,,,,,,,,,,,,,99.99,99.99,99.99*30
88.91114473342896:$GPGSV,4,1,16,03,05,035,26,04,09,066,,05,06,203,18,06,67,022,27*7B
88.9776349067688:$GPGSV,4,2,16,09,12,098,,11,55,265,23,12,42,304,,14,01,157,19*7E
89.04447174072266:$GPGSV,4,3,16,17,36,100,20,19,58,082,29,20,31,201,24,24,04,253,22*7E
89.14404392242432:$GPGSV,4,4,16,25,11,321,23,33,11,107,28,46,40,207,28,51,36,219,28*7C
89.14972686767578:$GPGLL,,,,,185634.00,V,N*47
89.74127006530762:$GPRMC,185635.00,V,,,,,,,140523,,,N*70
89.74159121513367:$GPVTG,,,,,,,,,N*30
89.8077962398529:$GPGGA,185635.00,,,,,0,00,99.99,,,,,,*6A
89.84130597114563:$GPGSA,A,1,,,,,,,,,,,,,99.99,99.99,99.99*30
89.9080593585968:$GPGSV,4,1,15,03,05,035,23,04,09,066,,05,06,203,,06,67,022,27*74
89.97414112091064:$GPGSV,4,2,15,09,12,098,,11,55,265,23,12,42,304,,14,01,157,*75
90.04094195365906:$GPGSV,4,3,15,17,36,100,19,19,58,082,29,20,31,201,23,24,04,253,19*78
90.10785675048828:$GPGSV,4,4,15,25,11,321,22,46,40,207,28,51,36,219,28*42
90.12933897972107:$GPGLL,,,,,185635.00,V,N*46
90.74240517616272:$GPRMC,185636.00,V,,,,,,,140523,,,N*73
90.74261593818665:$GPVTG,,,,,,,,,N*30
90.80906629562378:$GPGGA,185636.00,,,,,0,00,99.99,,,,,,*69
90.84266376495361:$GPGSA,A,1,,,,,,,,,,,,,99.99,99.99,99.99*30
90.90936088562012:$GPGSV,4,1,15,03,05,035,21,04,09,066,,05,06,203,18,06,67,022,27*7F
90.976069688797:$GPGSV,4,2,15,09,13,097,18,11,55,265,24,12,42,304,20,14,01,157,23*76
91.07529616355896:$GPGSV,4,3,15,17,36,100,20,19,58,082,30,20,31,201,23,24,04,253,*72
91.10883283615112:$GPGSV,4,4,15,25,11,321,22,46,40,207,29,51,36,219,29*42
91.13650107383728:$GPGLL,,,,,185636.00,V,N*45
91.74439001083374:$GPRMC,185637.00,V,,,,,,,140523,,,N*72
91.74471354484558:$GPVTG,,,,,,,,,N*30
91.81107950210571:$GPGGA,185637.00,,,,,0,00,99.99,,,,,,*68
91.84452390670776:$GPGSA,A,1,,,,,,,,,,,,,99.99,99.99,99.99*30
91.91085600852966:$GPGSV,4,1,15,03,05,035,26,04,09,066,,05,06,203,20,06,67,022,27*73
91.97753882408142:$GPGSV,4,2,15,09,13,097,19,11,55,265,24,12,42,304,22,14,01,157,21*77
92.0773274898529:$GPGSV,4,3,15,17,36,100,20,19,58,082,29,20,31,201,22,24,04,253,21*78
92.11112999916077:$GPGSV,4,4,15,25,11,321,,46,40,207,28,51,36,219,29*43
92.13883423805237:$GPGLL,,,,,185637.00,V,N*44
92.74273729324341:$GPRMC,185638.00,V,,,,,,,140523,,,N*7D
92.74324750900269:$GPVTG,,,,,,,,,N*30
92.80923080444336:$GPGGA,185638.00,,,,,0,00,99.99,,,,,,*67
92.84259819984436:$GPGSA,A,1,,,,,,,,,,,,,99.99,99.99,99.99*30
92.90946769714355:$GPGSV,4,1,15,03,05,035,22,04,09,066,20,05,06,203,21,06,67,022,28*7B
92.97607755661011:$GPGSV,4,2,15,09,13,097,,11,56,266,24,12,42,304,20,14,01,157,19*76
93.0756938457489:$GPGSV,4,3,15,17,36,100,20,19,58,082,30,20,31,201,23,24,04,253,*72
93.10922884941101:$GPGSV,4,4,15,25,11,321,,46,40,207,28,51,36,219,28*42
93.13490772247314:$GPGLL,,,,,185638.00,V,N*4B
93.74053597450256:$GPRMC,185639.00,V,,,,,,,140523,,,N*7C
93.74085736274719:$GPVTG,,,,,,,,,N*30
93.80707931518555:$GPGGA,185639.00,,,,,0,00,99.99,,,,,,*66
93.84072422981262:$GPGSA,A,1,,,,,,,,,,,,,99.99,99.99,99.99*30
93.90703296661377:$GPGSV,4,1,15,03,05,035,,04,09,066,,05,06,203,,06,67,022,28*7A
93.97373223304749:$GPGSV,4,2,15,09,13,097,17,11,56,266,23,12,42,303,21,14,01,157,16*7E
94.04026365280151:$GPGSV,4,3,15,17,36,100,21,19,58,082,30,20,31,201,20,24,04,253,18*79
94.10724711418152:$GPGSV,4,4,15,25,11,321,19,46,40,207,28,51,36,219,28*4A
94.1328637599945:$GPGLL,,,,,185639.00,V,N*4A
94.74527621269226:$GPRMC,185640.00,V,,,,,,,140523,,,N*72
94.74559831619263:$GPVTG,,,,,,,,,N*30
94.8118748664856:$GPGGA,185640.00,,,,,0,00,99.99,,,,,,*68
94.84534311294556:$GPGSA,A,1,,,,,,,,,,,,,99.99,99.99,99.99*30
94.91205763816833:$GPGSV,4,1,15,03,05,035,18,04,09,066,17,05,06,203,20,06,67,022,28*77
94.97861075401306:$GPGSV,4,2,15,09,13,097,,11,56,266,23,12,42,303,18,14,01,157,16*72
95.07829093933105:$GPGSV,4,3,15,17,36,100,20,19,58,082,29,20,31,201,22,24,04,253,*7B
95.11189675331116:$GPGSV,4,4,15,25,11,321,23,46,40,207,28,51,36,219,28*43
95.13956952095032:$GPGLL,,,,,185640.00,V,N*44
95.74430346488953:$GPRMC,185641.00,V,,,,,,,140523,,,N*73
95.74462866783142:$GPVTG,,,,,,,,,N*30
95.810786485672:$GPGGA,185641.00,,,,,0,00,99.99,,,,,,*69
95.84426808357239:$GPGSA,A,1,,,,,,,,,,,,,99.99,99.99,99.99*30
95.91073536872864:$GPGSV,4,1,15,03,05,035,21,04,09,066,16,05,06,203,19,06,67,022,28*76
95.97750949859619:$GPGSV,4,2,15,09,13,097,22,11,56,266,23,12,42,303,20,14,01,157,*7E
96.07721614837646:$GPGSV,4,3,15,17,36,100,19,19,58,082,29,20,31,201,21,24,04,253,*72
96.11087703704834:$GPGSV,4,4,15,25,11,321,19,46,40,207,28,51,36,219,28*4A
96.13862013816833:$GPGLL,,,,,185641.00,V,N*45
96.74519610404968:$GPRMC,185642.00,V,,,,,,,140523,,,N*70
96.74548554420471:$GPVTG,,,,,,,,,N*30
96.81174612045288:$GPGGA,185642.00,,,,,0,00,99.99,,,,,,*6A
96.84542512893677:$GPGSA,A,1,,,,,,,,,,,,,99.99,99.99,99.99*30
96.9118971824646:$GPGSV,4,1,15,03,05,035,22,04,09,066,18,05,06,203,20,06,67,022,28*71
96.97865533828735:$GPGSV,4,2,15,09,13,097,19,11,56,266,23,12,42,303,22,14,01,157,*74
97.07834339141846:$GPGSV,4,3,15,17,36,100,20,19,58,082,29,20,31,201,21,24,04,253,20*7A
97.11173486709595:$GPGSV,4,4,15,25,11,321,20,46,40,207,28,51,36,219,28*40
97.14152455329895:$GPGLL,,,,,185642.00,V,N*46
97.74550867080688:$GPRMC,185643.00,V,,,,,,,140523,,,N*71
97.74577021598816:$GPVTG,,,,,,,,,N*30
97.81227397918701:$GPGGA,185643.00,,,,,0,00,99.99,,,,,,*6B
97.84547877311707:$GPGSA,A,1,,,,,,,,,,,,,99.99,99.99,99.99*30
97.91234064102173:$GPGSV,4,1,15,03,05,035,19,04,09,066,,05,06,203,18,06,67,022,28*7B
97.97896265983582:$GPGSV,4,2,15,09,13,097,,11,56,266,23,12,42,303,25,14,01,157,*7B
98.04560947418213:$GPGSV,4,3,15,17,36,100,20,19,58,082,29,20,31,201,20,24,04,253,18*70
98.11232924461365:$GPGSV,4,4,15,25,11,321,17,46,40,207,28,51,36,219,28*44
98.13791394233704:$GPGLL,,,,,185643.00,V,N*47
98.74437975883484:$GPRMC,185644.00,V,,,,,,,140523,,,N*76
98.74469876289368:$GPVTG,,,,,,,,,N*30
98.81102561950684:$GPGGA,185644.00,,,,,0,00,99.99,,,,,,*6C
98.84455513954163:$GPGSA,A,1,,,,,,,,,,,,,99.99,99.99,99.99*30
98.91105794906616:$GPGSV,4,1,15,03,05,035,21,04,09,066,,05,06,203,22,06,67,022,28*79
98.97774267196655:$GPGSV,4,2,15,09,13,097,,11,56,266,22,12,42,303,,14,01,157,*7D
99.04422092437744:$GPGSV,4,3,15,17,36,100,21,19,58,082,29,20,31,201,19,24,04,253,16*75
99.11105608940125:$GPGSV,4,4,15,25,11,321,14,46,40,207,27,51,36,219,27*47
99.13439011573792:$GPGLL,,,,,185644.00,V,N*40
99.7421863079071:$GPRMC,185645.00,V,,,,,,,140523,,,N*77
99.7426700592041:$GPVTG,,,,,,,,,N*30
99.80878520011902:$GPGGA,185645.00,,,,,0,00,99.99,,,,,,*6D
99.84227657318115:$GPGSA,A,1,,,,,,,,,,,,,99.99,99.99,99.99*30
99.90902209281921:$GPGSV,4,1,16,03,05,035,21,04,09,066,,05,06,203,15,06,67,022,27*71
99.97558903694153:$GPGSV,4,2,16,07,,,20,09,13,097,,11,56,266,22,12,42,303,*4C
100.04191279411316:$GPGSV,4,3,16,14,01,157,,17,36,100,21,19,58,082,29,20,31,201,19*70
100.10873818397522:$GPGSV,4,4,16,24,04,253,14,25,11,321,,46,40,207,27,51,36,219,27*72
100.13838696479797:$GPGLL,,,,,185645.00,V,N*41
100.74316740036011:$GPRMC,185646.00,V,,,,,,,140523,,,N*74
100.74347758293152:$GPVTG,,,,,,,,,N*30
100.80963206291199:$GPGGA,185646.00,,,,,0,00,99.99,,,,,,*6E
100.84322357177734:$GPGSA,A,1,,,,,,,,,,,,,99.99,99.99,99.99*30
100.9097809791565:$GPGSV,4,1,15,03,05,035,22,04,09,066,19,05,06,203,15,06,67,022,28*76
100.9765076637268:$GPGSV,4,2,15,09,13,097,,11,56,266,22,12,42,303,19,14,01,157,*75
101.04314017295837:$GPGSV,4,3,15,17,36,100,23,19,58,083,29,20,31,201,18,24,04,253,*70
101.10985207557678:$GPGSV,4,4,15,25,11,321,,46,40,207,27,51,36,219,27*42
101.13339734077454:$GPGLL,,,,,185646.00,V,N*42
101.76318287849426:$GPRMC,185647.00,V,,,,,,,140523,,,N*75
101.7634506225586:$GPVTG,,,,,,,,,N*30
101.8298327922821:$GPGGA,185647.00,,,,,0,03,99.99,,,,,,*6C
101.86336421966553:$GPGSA,A,1,06,19,17,,,,,,,,,,99.99,99.99,1.00*09
101.9299705028534:$GPGSV,4,1,15,03,05,035,22,04,09,066,18,05,06,203,15,06,67,022,28*77
102.02940535545349:$GPGSV,4,2,15,09,13,097,,11,56,266,22,12,42,303,17,14,01,157,*7B
102.0963613986969:$GPGSV,4,3,15,17,36,100,23,19,58,083,29,20,31,201,17,24,04,253,*7F
102.12988924980164:$GPGSV,4,4,15,25,11,321,16,46,40,207,26,51,36,219,27*44
102.16077136993408:$GPGLL,,,,,185647.00,V,N*43
102.7483298778534:$GPRMC,185648.00,V,,,,,,,140523,,,N*7A
102.74864935874939:$GPVTG,,,,,,,,,N*30
