1.493478536605835:Booting ...
1.4937694072723389:initializing I/O
1.5166971683502197:initializing DRA818
3.7932350635528564:Init - ok
3.7933156490325928:t:
3.7933809757232666:0
3.7935431003570557:APRS:start
4.8092942237854:APRS:end
4.875782489776611:[packet error]
4.909451246261597:$GPGLL,33,15,25,19,317,,46,40,207,35,48,19,244,36*75
4.932743310928345:$GPGLL,,,,,191747.00,V,N*47
5.4363768100738525:$GPRMC,191748.00,V,,,,,,,140523,,,N*7E
5.436670780181885:$GPVTG,,,,,,,,,N*30
5.502967834472656:$GPGGA,191748.00,,,,,0,00,99.99,,,,,,*64
5.536468982696533:$GPGSA,A,1,,,,,,,,,,,,,99.99,99.99,99.99*30
5.603002309799194:$GPGSV,6,1,21,01,,,31,02,,,32,03,,,32,04,10,058,28*4D
5.669595003128052:$GPGSV,6,2,21,05,14,205,39,06,59,035,29,07,,,32,08,,,32*7B
5.735982418060303:$GPGSV,6,3,21,09,17,089,,10,,,31,11,62,281,21,12,47,292,27*42
5.769402503967285:$GPGSV,6,4,21,13,,,32,14,,,33,15,,,33,17,29,109,33*4F
5.836416244506836:$GPGSV,6,5,21,19,51,096,,20,41,203,24,25,19,317,,46,40,207,32*72
5.869909286499023:$GPGSV,6,6,21,48,19,244,34*4B
5.900620460510254:$GPGLL,,,,,191748.00,V,N*48
6.433894634246826:$GPRMC,191749.00,V,,,,,,,140523,,,N*7F
6.43419075012207:$GPVTG,,,,,,,,,N*30
6.500577211380005:$GPGGA,191749.00,,,,,0,00,99.99,,,,,,*65
6.5339415073394775:$GPGSA,A,1,,,,,,,,,,,,,99.99,99.99,99.99*30
6.600438117980957:$GPGSV,5,1,20,01,,,23,02,,,13,03,,,24,04,10,058,09*4B
6.6669135093688965:$GPGSV,5,2,20,05,14,205,21,06,59,035,18,07,,,25,08,,,24*73
6.733551740646362:$GPGSV,5,3,20,09,17,089,17,10,,,23,11,62,281,20,12,47,292,22*41
6.767469644546509:$GPGSV,5,4,20,13,,,13,14,,,12,15,,,12,17,29,109,*4E
6.866945028305054:$GPGSV,5,5,20,19,51,096,10,20,41,203,45,25,19,317,21,48,19,244,39*7B
6.867301940917969:$GPGLL,,,,,191749.00,V,N*49
7.471134424209595:$GPRMC,191750.00,A,3938.28409,N,07957.13326,W,0.229,,140523,,,A*6E
7.504432439804077:$GPVTG,,T,,M,0.229,N,0.424,K,A*28
7.5711989402771:$GPGGA,191750.00,3938.28409,N,07957.13326,W,1,03,2.71,275.2,M,-33.9,M,,*6B
7.637778043746948:$GPGSA,A,2,06,19,20,,,,,,,,,,2.89,2.71,1.00*09
7.671450614929199:$GPGSV,5,1,17,01,,,20,03,,,20,04,10,058,34,05,14,205,19*79
7.737853288650513:$GPGSV,5,2,17,06,59,035,45,08,,,21,09,17,089,15,10,,,19*7D
7.804558753967285:$GPGSV,5,3,17,11,62,281,18,12,47,292,18,14,,,09,15,,,12*74
7.871206521987915:$GPGSV,5,4,17,17,29,109,,19,51,096,40,20,41,203,45,25,19,317,*71
7.904419183731079:$GPGSV,5,5,17,48,19,244,40*4D
7.952861785888672:$GPGLL,3938.28409,N,07957.13326,W,191750.00,A,A*7F
8.472212314605713:$GPRMC,191751.00,A,3938.28433,N,07957.13426,W,0.062,,140523,,,A*6C
8.505866289138794:$GPVTG,,T,,M,0.062,N,0.115,K,A*22
8.572637557983398:$GPGGA,191751.00,3938.28433,N,07957.13426,W,1,03,2.71,275.2,M,-33.9,M,,*64
8.639047861099243:$GPGSA,A,2,06,19,20,,,,,,,,,,2.89,2.71,1.00*09
8.672735214233398:$GPGSV,4,1,14,01,,,15,03,,,14,04,10,058,34,05,14,205,38*79
8.739145040512085:$GPGSV,4,2,14,06,59,035,46,09,17,089,15,10,,,14,11,62,281,*45
8.805825233459473:$GPGSV,4,3,14,12,47,292,,17,29,109,,19,51,096,40,20,41,203,45*77
8.872148990631104:$GPGSV,4,4,14,25,19,317,19,48,19,244,40*7C
8.905891180038452:$GPGLL,3938.28433,N,07957.13426,W,191751.00,A,A*70
9.437008619308472:$GPRMC,191752.00,V,,,,,,,140523,,,N*75
9.43721604347229:$GPVTG,,,,,,,,,N*30
9.503703832626343:$GPGGA,191752.00,,,,,0,04,4.66,,,,,,*5F
9.537381410598755:$GPGSA,A,1,06,19,12,20,,,,,,,,,28.79,4.66,28.41*00
9.603933095932007:$GPGSV,4,1,13,01,,,12,03,,,10,04,10,058,34,05,14,205,38*7D
9.670513391494751:$GPGSV,4,2,13,06,59,035,44,09,17,089,13,11,62,281,,12,47,292,31*79
9.737020492553711:$GPGSV,4,3,13,17,29,109,25,19,51,096,40,20,41,203,45,25,19,317,*74
9.770429372787476:$GPGSV,4,4,13,48,19,244,41*48
9.800276517868042:$GPGLL,,,,,191752.00,V,N*43
10.439376831054688:$GPRMC,191753.00,V,,,,,,,140523,,,N*74
10.439642906188965:$GPVTG,,,,,,,,,N*30
10.505981683731079:$GPGGA,191753.00,,,,,0,04,4.66,,,,,,*5E
10.539551019668579:$GPGSA,A,1,06,19,12,20,,,,,,,,,28.80,4.66,28.42*05
10.60630464553833:$GPGSV,3,1,12,01,,,11,04,10,058,35,05,14,205,37,06,59,035,44*48
10.672858476638794:$GPGSV,3,2,12,09,17,089,,11,62,281,,12,47,292,30,17,29,109,21*76
10.772756099700928:$GPGSV,3,3,12,19,51,096,39,20,41,203,45,25,19,317,,48,19,244,41*7D
10.77295470237732:$GPGLL,,,,,191753.00,V,N*42
11.404787302017212:$GPRMC,191754.0t:
11.404876708984375:3000
11.412403583526611:APRS:start
12.445834636688232:APRS:end
12.47907280921936:0,V,,,,,,,140523,,,N*73
12.479350090026855:$GPVTG,,,,,,,,,N*30
12.513052225112915:$GPGGA,191754.00,TG,,,,,,,,,N*30
12.579087495803833:$GPGGA,191755.00,,,,,0,00,99.99,,,,,,*68
12.612610101699829:$GPGSA,A,1,,,,,,,,,,,,,99.99,99.99,99.99*30
12.679113149642944:$GPGSV,6,1,22,01,,,32,02,,,31,03,,,31,04,10,058,28*4D
12.745434284210205:$GPGSV,6,2,22,05,14,205,,06,59,035,25,07,,,32,08,,,30*7C
12.812017440795898:$GPGSV,6,3,22,09,17,089,28,10,,,33,11,62,281,29,12,47,292,26*40
12.845613241195679:$GPGSV,6,4,22,13,,,32,14,,,33,15,,,32,17,29,109,33*4D
12.912536859512329:$GPGSV,6,5,22,19,51,096,28,20,41,203,30,25,19,317,31,33,11,107,34*7F
12.978647947311401:$GPGSV,6,6,22,46,40,207,33,48,19,244,34*7B
12.990825176239014:$GPGLL,,,,,191755.00,V,N*44
13.43088674545288:$GPRMC,191756.00,V,,,,,,,140523,,,N*71
13.431209087371826:$GPVTG,,,,,,,,,N*30
13.49769902229309:$GPGGA,191756.00,,,,,0,00,99.99,,,,,,*6B
13.531149864196777:$GPGSA,A,1,,,,,,,,,,,,,99.99,99.99,99.99*30
13.597667694091797:$GPGSV,6,1,22,01,,,32,02,,,33,03,,,32,04,10,058,29*4D
13.664262533187866:$GPGSV,6,2,22,05,14,205,25,06,59,035,34,07,,,30,08,,,31*78
13.730643272399902:$GPGSV,6,3,22,09,17,089,,10,,,31,11,62,281,31,12,47,292,34*42
13.764383554458618:$GPGSV,6,4,22,13,,,33,14,,,32,15,,,33,17,29,109,31*4E
13.831107378005981:$GPGSV,6,5,22,19,51,096,,20,41,203,,25,19,317,31,33,11,107,34*76
13.897528171539307:$GPGSV,6,6,22,46,40,207,34,48,19,244,35*7D
13.908510208129883:$GPGLL,,,,,191756.00,V,N*47
14.474211692810059:$GPRMC,191757.00,A,3938.28486,N,07957.13511,W,0.850,,140523,,,A*68
14.507660865783691:$GPVTG,,T,,M,0.850,N,1.574,K,A*29
14.574120283126831:$GPGGA,191757.00,3938.28486,N,07957.13511,W,1,03,2.71,274.5,M,-33.9,M,,*6F
14.640602350234985:$GPGSA,A,2,06,19,20,,,,,,,,,,2.89,2.71,1.00*09
14.707300424575806:$GPGSV,4,1,13,02,,,18,04,10,058,18,05,14,205,42,06,59,035,46*4B
14.774046897888184:$GPGSV,4,2,13,09,17,089,,11,62,281,29,12,47,292,33,14,,,24*4D
14.840640544891357:$GPGSV,4,3,13,17,29,109,32,19,51,097,39,20,41,203,47,25,19,317,*7F
14.873965978622437:$GPGSV,4,4,13,48,19,244,42*4B
14.90424370765686:$GPGLL,3938.28486,N,07957.13511,W,191757.00,A,A*7D
15.46979832649231:$GPRMC,191758.00,A,3938.28496,N,07957.13511,W,0.022,,140523,,,A*6B
15.503072738647461:$GPVTG,,T,,M,0.022,N,0.041,K,A*26
15.569837808609009:$GPGGA,191758.00,3938.28496,N,07957.13511,W,1,03,2.71,274.8,M,-33.9,M,,*6C
15.636253833770752:$GPGSA,A,2,06,19,20,,,,,,,,,,2.89,2.71,1.00*09
15.70288896560669:$GPGSV,4,1,13,02,,,15,04,10,058,36,05,14,205,41,06,59,035,45*4A
15.769280672073364:$GPGSV,4,2,13,09,17,089,,11,62,281,32,12,47,292,34,14,,,19*4E
15.836243391036987:$GPGSV,4,3,13,17,29,109,33,19,51,097,39,20,41,203,45,25,19,317,*7C
15.869495153427124:$GPGSV,4,4,13,48,19,244,41*48
15.899670600891113:$GPGLL,3938.28496,N,07957.13511,W,191758.00,A,A*73
16.478752374649048:$GPRMC,191759.00,A,3938.28517,N,07957.13489,W,0.028,,140523,,,A*68
16.512165307998657:$GPVTG,,T,,M,0.028,N,0.051,K,A*2D
16.578922986984253:$GPGGA,191759.00,3938.28517,N,07957.13489,W,1,03,2.71,274.9,M,-33.9,M,,*64
16.645350456237793:$GPGSA,A,2,06,19,20,,,,,,,,,,2.88,2.71,1.00*08
16.712172508239746:$GPGSV,3,1,12,02,,,12,04,10,058,35,05,14,205,42,06,59,035,45*4B
16.77863121032715:$GPGSV,3,2,12,09,17,089,,11,62,281,31,12,47,292,34,17,29,109,33*73
16.84530210494995:$GPGSV,3,3,12,19,51,097,39,20,41,203,46,25,19,317,,48,19,244,41*7F
16.878916263580322:$GPGLL,3938.28517,N,07957.13489,W,191759.00,A,A*7A
17.475690603256226:$GPRMC,191800.00,A,3938.28522,N,07957.13487,W,0.048,,140523,,,A*65
17.509111166000366:$GPVTG,,T,,M,0.048,N,0.089,K,A*2E
17.57537007331848:$GPGGA,191800.00,3938.28522,N,07957.13487,W,1,03,2.71,275.0,M,-33.9,M,,*67
17.642258882522583:$GPGSA,A,2,06,19,20,,,,,,,,,,2.88,2.71,1.00*08
17.708880186080933:$GPGSV,3,1,12,02,,,10,04,10,058,35,05,14,205,41,06,59,035,45*4A
17.775601863861084:$GPGSV,3,2,12,09,17,089,32,11,62,281,31,12,47,292,33,17,29,109,33*75
17.842049598693848:$GPGSV,3,3,12,19,51,097,38,20,41,203,45,25,19,317,,48,19,244,40*7C
17.8646080493927:$GPGLL,3938.285t:
17.864816188812256:3000
17.86502194404602:APRS:start
18.89685082435608:APRS:end
18.930234909057617:22,N,07957.13487,W,191800.00,A,A*71
19.42765188217163:$GPRMC,191801.00,V,,,,,,,1$GPRMC,191802.00,V,,,,,,,140523,,,N*7F
19.42794132232666:$GPVTG,,,,,,,,,N*30
19.494341373443604:$GPGGA,191802.00,,,,,0,00,99.99,,,,,,*65
19.52772879600525:$GPGSA,A,1,,,,,,,,,,,,,99.99,99.99,99.99*30
19.594307899475098:$GPGSV,6,1,21,01,,,31,02,,,33,03,,,31,04,10,058,*45
19.660754203796387:$GPGSV,6,2,21,05,14,205,28,06,59,035,,07,,,32,08,,,31*73
19.69460940361023:$GPGSV,6,3,21,09,17,089,,10,,,31,11,62,281,,12,47,292,*44
19.760837078094482:$GPGSV,6,4,21,13,,,31,14,,,33,15,,,33,17,29,109,*4C
19.82735538482666:$GPGSV,6,5,21,19,51,097,27,20,41,203,,25,19,316,31,46,40,207,33*72
19.86083698272705:$GPGSV,6,6,21,48,19,244,34*4B
19.883358001708984:$GPGLL,,,,,191802.00,V,N*49
20.474397659301758:$GPRMC,191803.00,A,3938.28537,N,07957.13508,W,0.136,,140523,,,A*6C
20.5077543258667:$GPVTG,,T,,M,0.136,N,0.251,K,A*21
20.574768543243408:$GPGGA,191803.00,3938.28537,N,07957.13508,W,1,03,2.01,274.1,M,-33.9,M,,*61
20.64127254486084:$GPGSA,A,2,06,12,20,,,,,,,,,,2.25,2.01,1.00*03
20.708000659942627:$GPGSV,3,1,11,04,10,058,32,05,14,205,38,06,59,035,45,09,17,089,28*77
20.77428960800171:$GPGSV,3,2,11,11,62,281,,12,47,292,31,17,29,109,34,19,51,097,39*76
20.840912342071533:$GPGSV,3,3,11,20,41,203,45,25,19,316,,48,19,244,40*47
20.868956089019775:$GPGLL,3938.28537,N,07957.13508,W,191803.00,A,A*70
21.472513437271118:$GPRMC,191804.00,A,3938.28641,N,07957.13598,W,0.099,,140523,,,A*64
21.505844593048096:$GPVTG,,T,,M,0.099,N,0.183,K,A*29
21.57246994972229:$GPGGA,191804.00,3938.28641,N,07957.13598,W,1,03,2.01,267.2,M,-33.9,M,,*6C
21.63910484313965:$GPGSA,A,2,06,12,20,,,,,,,,,,2.25,2.01,1.00*03
21.705791473388672:$GPGSV,3,1,11,04,10,058,34,05,14,205,39,06,59,035,45,09,17,089,29*71
21.772347688674927:$GPGSV,3,2,11,11,62,281,,12,47,292,31,17,29,109,33,19,51,097,39*71
21.838950634002686:$GPGSV,3,3,11,20,41,203,46,25,19,316,,48,19,244,40*44
21.866800785064697:$GPGLL,3938.28641,N,07957.13598,W,191804.00,A,A*7C
22.441521883010864:$GPRMC,191805.00,V,,,,,,,140523,,,N*78
22.441776275634766:$GPVTG,,,,,,,,,N*30
22.508116483688354:$GPGGA,191805.00,,,,,0,03,2.01,,,,,,*52
22.54158306121826:$GPGSA,A,1,06,12,20,,,,,,,,,,2.25,2.01,1.00*00
22.608485221862793:$GPGSV,3,1,11,04,10,058,35,05,14,205,39,06,59,035,45,09,17,089,30*78
22.7077898979187:$GPGSV,3,2,11,11,62,281,30,12,47,292,32,17,29,109,34,19,51,097,39*76
22.741458892822266:$GPGSV,3,3,11,20,41,203,46,25,19,316,,48,19,244,40*44
22.76703691482544:$GPGLL,,,,,191805.00,V,N*4E
23.4395968914032:$GPRMC,191806.00,V,,,,,,,140523,,,N*7B
23.43992304801941:$GPVTG,,,,,,,,,N*30
23.506256103515625:$GPGGA,191806.00,,,,,0,03,2.01,,,,,,*51
23.53970503807068:$GPGSA,A,1,06,12,20,,,,,,,,,,2.25,2.01,1.00*00
23.606520891189575:$GPGSV,3,1,11,04,10,058,35,05,14,205,39,06,59,035,45,09,17,089,30*78
23.705970764160156:$GPGSV,3,2,11,11,62,281,29,12,47,292,33,17,29,109,34,19,51,097,37*71
23.73951554298401:$GPGSV,3,3,11,20,41,203,46,25,19,316,,48,19,244,39*4A
23.765189170837402:$GPGLL,,,,,191806.00,V,N*4D
24.44221830368042:$GPRMC,191807.00,V,,,,,,,140523,,,N*7A
24.442461013793945:$GPVTG,,,,,,,,,N*30
24.508907079696655:$GPGGA,191807.00,,,,,0,03,2.01,,,,,,*50
24.542224168777466:$GPGSA,A,1,06,12,20,,,,,,,,,,2.25,2.01,1.00*00
24.60899829864502:$GPGSV,3,1,11,04,10,058,34,05,14,205,39,06,59,035,44,09,17,089,30*78
24.70879364013672:$GPGSV,3,2,11,11,62,281,30,12,47,292,32,17,29,109,33,19,51,097,36*7E
24.74194598197937:$GPGSV,3,3,11,20,41,203,46,25,19,316,,48,19,244,39*4A
24.76782536506653:$GPGLL,,,,,191807.00,V,N*4C
25.43940806388855:$GPRMC,191808.00,V,,,,,,,140523,,,N*75
25.439727067947388:$GPVTG,,,,,,,,,N*30
25.505936861038208:$GPGGA,191808.00,,,,,0,04,4.63,,,,,,*5A
25.539595127105713:$GPGSA,A,1,06,19,12,20,,,,,,,,,28.91,4.63,28.54*07
25.606339931488037:$GPGSV,3,1,11,04,10,058,34,05,14,205,39,06,59,035,45,09,17,089,31*78
25.70577049255371:$GPGSV,3,2,11,11,62,281,29,12,47,292,34,17,29,109,33,19,51,097,37*71
25.739255666732788:$GPGSV,3,3,11,20,41,203,46,25,19,316,,48,19,244,39*4A
25.772457599639893:$GPGLL,,,,,191808.00,V,t:
25.772566556930542:3000
25.78546905517578:APRS:start
26.800731897354126:APRS:end
26.800809144973755:N*43
26.834288358688354:$GPRMC,191809.00,V,,,,,,,140523,,,N*74
26.876445770263672:$GPVTG,,,,,,,,,N*$GPGLL,,,,,191809.00,V,N*42
26.972343921661377:[packet error]
27.431233167648315:$GPRMC,191810.00,V,,,,,,,140523,,,N*7C
27.431559085845947:$GPVTG,,,,,,,,,N*30
27.49795627593994:$GPGGA,191810.00,,,,,0,00,99.99,,,,,,*66
27.531468629837036:$GPGSA,A,1,,,,,,,,,,,,,99.99,99.99,99.99*30
27.597888469696045:$GPGSV,6,1,22,01,,,32,02,,,33,03,,,32,04,10,058,*46
27.66450524330139:$GPGSV,6,2,22,05,14,205,28,06,59,035,37,07,,,31,08,,,32*74
27.73090648651123:$GPGSV,6,3,22,09,17,089,,10,,,31,11,62,281,29,12,47,292,24*4A
27.764700412750244:$GPGSV,6,4,22,13,,,31,14,,,31,15,,,32,17,29,109,*4C
27.831435918807983:$GPGSV,6,5,22,19,51,097,,20,41,203,,25,19,316,32,33,11,107,34*75
27.89771842956543:$GPGSV,6,6,22,46,40,207,32,48,19,244,33*7D
27.90454077720642:$GPGLL,,,,,191810.00,V,N*4A
27.961615085601807:[packet error]
28.15140700340271:[packet error]
28.301621913909912:[packet error]
28.431845664978027:$GPRMC,191811.00,V,,,,,,,140523,,,N*7D
28.43213963508606:$GPVTG,,,,,,,,,N*30
28.498475551605225:$GPGGA,191811.00,,,,,0,00,99.99,,,,,,*67
28.531915187835693:$GPGSA,A,1,,,,,,,,,,,,,99.99,99.99,99.99*30
28.598579168319702:$GPGSV,5,1,20,01,,,24,02,,,15,03,,,12,04,10,058,35*40
28.66495108604431:$GPGSV,5,2,20,05,14,205,40,06,59,035,39,07,,,22,08,,,24*70
28.73154640197754:$GPGSV,5,3,20,09,17,089,10,10,,,23,11,62,281,19,12,47,292,19*44
28.76496958732605:$GPGSV,5,4,20,13,,,24,14,,,22,15,,,24,17,29,109,33*4C
28.86477017402649:$GPGSV,5,5,20,19,51,097,36,20,41,203,44,25,19,316,08,48,19,244,27*7A
28.869460105895996:$GPGLL,,,,,191811.00,V,N*4B
29.427135229110718:$GPRMC,191812.00,V,,,,,,,140523,,,N*7E
29.427361488342285:$GPVTG,,,,,,,,,N*30
29.493630409240723:$GPGGA,191812.00,,,,,0,00,99.99,,,,,,*64
29.527254581451416:$GPGSA,A,1,,,,,,,,,,,,,99.99,99.99,99.99*30
29.593807697296143:$GPGSV,4,1,16,01,,,20,02,,,13,03,,,12,04,10,058,35*46
29.660584926605225:$GPGSV,4,2,16,05,14,205,40,06,59,035,43,08,,,21,09,17,089,*45
29.727022409439087:$GPGSV,4,3,16,11,62,281,17,12,47,292,16,14,,,20,17,29,109,35*4A
29.79380464553833:$GPGSV,4,4,16,19,51,097,35,20,41,203,41,25,19,316,,48,19,244,27*71
29.808776378631592:$GPGLL,,,,,191812.00,V,N*48
30.47468590736389:$GPRMC,191813.00,A,3938.28231,N,07957.13340,W,0.088,,140523,,,A*62
30.508070945739746:$GPVTG,,T,,M,0.088,N,0.164,K,A*20
30.57459545135498:$GPGGA,191813.00,3938.28231,N,07957.13340,W,1,03,5.38,299.4,M,-33.9,M,,*60
30.641323804855347:$GPGSA,A,2,19,20,17,,,,,,,,,,5.47,5.38,1.00*06
30.707894325256348:$GPGSV,4,1,13,02,,,13,04,10,058,35,05,14,205,40,06,59,035,15*4B
30.774269342422485:$GPGSV,4,2,13,08,,,17,09,17,089,32,11,62,281,13,12,47,292,*48
30.841014862060547:$GPGSV,4,3,13,17,29,109,34,19,51,097,34,20,41,203,47,25,19,316,22*75
30.874305486679077:$GPGSV,4,4,13,48,19,244,27*48
30.906495094299316:$GPGLL,3938.28231,N,07957.13340,W,191813.00,A,A*7A
31.470804452896118:$GPRMC,191814.00,A,3938.28252,N,07957.13391,W,0.175,,140523,,,A*6F
31.50421905517578:$GPVTG,,T,,M,0.175,N,0.325,K,A*24
31.570963859558105:$GPGGA,191814.00,3938.28252,N,07957.13391,W,1,04,1.86,300.3,M,-33.9,M,,*6E
31.637396335601807:$GPGSA,A,3,19,12,20,17,,,,,,,,,5.81,1.86,5.50*0E
31.704074144363403:$GPGSV,3,1,12,02,,,11,04,10,058,34,05,14,205,40,06,59,035,10*4B
31.77100706100464:$GPGSV,3,2,12,09,17,089,32,11,62,281,,12,47,292,34,17,29,109,33*70
31.83768939971924:$GPGSV,3,3,12,19,51,097,32,20,41,203,46,25,19,316,21,48,19,244,38*78
31.877646446228027:$GPGLL,3938.28252,N,07957.13391,W,191814.00,A,A*74
32.47945785522461:$GPRMC,191815.00,A,3938.28146,N,07957.13314,W,0.016,,140523,,,A*61
32.51281428337097:$GPVTG,,T,,M,0.016,N,0.030,K,A*27
32.5795693397522:$GPGGA,191815.00,3938.28146,N,07957.13314,W,1,05,1.75,306.7,M,-33.9,M,,*6B
