1.4934370517730713:Booting ...
1.4937331676483154:initializing I/O
1.5170283317565918:initializing DRA818
3.79235577583313:Init - ok
3.7924458980560303:t:
3.7925009727478027:0
3.7926840782165527:APRS:start
4.794121265411377:APRS:end
4.827520132064819:$GPRMC,192134.00,V,,,,,,,140523,,,N*70
4.860788583755493:$GPVTG,,,,,,,,,N*30
4.861067056655884:$G,36,219,34*4E
4.885320663452148:$GPGLL,,,,,192134.00,V,N*46
5.395238876342773:$GPRMC,192135.00,V,,,,,,,140523,,,N*71
5.395488739013672:$GPVTG,,,,,,,,,N*30
5.462099313735962:$GPGGA,192135.00,,,,,0,00,99.99,,,,,,*6B
5.4954674243927:$GPGSA,A,1,,,,,,,,,,,,,99.99,99.99,99.99*30
5.56191086769104:$GPGSV,6,1,22,01,,,31,02,,,34,03,,,32,04,10,056,38*47
5.6286396980285645:$GPGSV,6,2,22,05,16,205,34,06,58,037,33,07,,,31,08,,,31*7F
5.694979429244995:$GPGSV,6,3,22,09,18,087,,10,,,33,11,63,284,,12,48,290,*4D
5.728666067123413:$GPGSV,6,4,22,13,,,34,14,,,33,15,,,34,17,28,110,*44
5.795333385467529:$GPGSV,6,5,22,19,49,099,31,20,42,204,30,25,20,316,34,46,40,207,32*78
5.861870288848877:$GPGSV,6,6,22,48,19,244,35,51,36,219,35*74
5.870715856552124:$GPGLL,,,,,192135.00,V,N*47
6.394232749938965:$GPRMC,192136.00,V,,,,,,,140523,,,N*72
6.394568204879761:$GPVTG,,,,,,,,,N*30
6.4607298374176025:$GPGGA,192136.00,,,,,0,00,99.99,,,,,,*68
6.494268894195557:$GPGSA,A,1,,,,,,,,,,,,,99.99,99.99,99.99*30
6.560773611068726:$GPGSV,4,1,13,01,,,23,03,,,22,04,10,056,32,05,16,205,38*74
6.6274542808532715:$GPGSV,4,2,13,06,58,037,47,09,18,087,,11,63,284,33,12,48,290,*71
6.694041967391968:$GPGSV,4,3,13,14,,,12,17,28,110,27,19,49,099,39,20,42,204,38*45
6.727416753768921:$GPGSV,4,4,13,25,20,316,*4A
6.7436323165893555:$GPGLL,,,,,192136.00,V,N*44
7.396378755569458:$GPRMC,192137.00,V,,,,,,,140523,,,N*73
7.39670991897583:$GPVTG,,,,,,,,,N*30
7.4630115032196045:$GPGGA,192137.00,,,,,0,00,99.99,,,,,,*69
7.49639630317688:$GPGSA,A,1,,,,,,,,,,,,,99.99,99.99,99.99*30
7.56297755241394:$GPGSV,3,1,11,03,,,19,04,10,056,33,05,16,205,38,06,58,037,47*44
7.629667043685913:$GPGSV,3,2,11,09,18,087,,11,63,284,33,12,48,290,32,17,28,110,27*70
7.6960835456848145:$GPGSV,3,3,11,19,49,099,39,20,42,204,38,25,20,316,*4E
7.712337493896484:$GPGLL,,,,,192137.00,V,N*45
8.395336389541626:$GPRMC,192138.00,V,,,,,,,140523,,,N*7C
8.395580768585205:$GPVTG,,,,,,,,,N*30
8.462191343307495:$GPGGA,192138.00,,,,,0,00,99.99,,,,,,*66
8.495476484298706:$GPGSA,A,1,,,,,,,,,,,,,99.99,99.99,99.99*30
8.562252044677734:$GPGSV,3,1,10,04,10,056,33,05,16,205,38,06,58,037,47,09,18,087,*71
8.629128217697144:$GPGSV,3,2,10,11,63,284,33,12,48,290,32,17,28,110,27,19,49,099,40*7F
8.695186614990234:$GPGSV,3,3,10,20,42,204,38,25,20,316,*70
8.70315408706665:$GPGLL,,,,,192138.00,V,N*4A
9.400562286376953:$GPRMC,192139.00,V,,,,,,,140523,,,N*7D
9.400886535644531:$GPVTG,,,,,,,,,N*30
9.46720814704895:$GPGGA,192139.00,,,,,0,00,99.99,,,,,,*67
9.5006685256958:$GPGSA,A,1,,,,,,,,,,,,,99.99,99.99,99.99*30
9.567239761352539:$GPGSV,3,1,10,04,10,056,34,05,16,205,38,06,58,037,46,09,18,087,34*70
9.633898496627808:$GPGSV,3,2,10,11,63,284,33,12,48,290,32,17,28,110,27,19,49,099,40*7F
9.700209856033325:$GPGSV,3,3,10,20,42,204,38,25,20,316,*70
9.710141658782959:$GPGLL,,,,,192139.00,V,N*4B
10.396260499954224:$GPRMC,192140.00,V,,,,,,,140523,,,N*73
10.3965904712677:$GPVTG,,,,,,,,,N*30
10.462770223617554:$GPGGA,192140.00,,,,,0,00,99.99,,,,,,*69
10.496186971664429:$GPGSA,A,1,,,,,,,,,,,,,99.99,99.99,99.99*30
10.562809705734253:$GPGSV,3,1,10,04,10,056,34,05,16,205,38,06,58,037,47,09,18,087,34*71
10.629842281341553:$GPGSV,3,2,10,11,63,284,32,12,48,290,,17,28,110,26,19,49,099,40*7E
10.695894241333008:$GPGSV,3,3,10,20,42,204,37,25,20,316,23*7E
10.705876588821411:$GPGLL,,,,,192140.00,V,N*45
11.405136823654175:$GPRMC,192141.00,V,,,,,,,140523,,,N*72
11.405435562133789:$GPVTG,,,,,,,,,N*30
11.47176456451416:$GPGGA,192141.00,,,,,0,03,2.65,,,,,,*5A
11.505279064178467:$GPGSA,A,1,06,19,20,,,,,,,,,,2.83,2.65,1.00*05
11.571847200393677:$GPGSV,3,1,10,04,10,056,34,05,16,205,38,06,58,037,47,09,18,087,34*71
11.638461589813232:$GPGSV,3,2,10,11,63,284,,12,48,290,32,17,28,110,28,19,49,099,40*70
11.704962968826294:$GPGSV,3,3,10,20,42,204,37,25,20,316,28*75
11.71692705154419:$GPGLL,,,,,192141.00,V,N*44
12.400239944458008:$GPRMC,192142.00,V,,,,,,,140523,,,N*71
12.400537252426147:$GPVTG,,,,,,,,,N*30
12.466693878173828:$GPGGA,192142.00,,,,,0,03,2.65,,,,,,*59
12.500338554382324:$GPGSA,A,1,06,19,20,,,,,,,,,,2.83,2.65,1.00*05
12.53359842300415:$GPGSV,3,1,10,04,10,056,33,t:
12.533714771270752:3000
12.543320655822754:APRS:start
13.576287269592285:APRS:end
13.609649181365967:05,16,205,38,06,58,037,46,09,18,087,34*77
13.642939805984497:$GPGSV,3,2,10,11,63,
13.709331274032593:$GPGSV,6,2,22,05,16,205,29,06,58,037,25,07,,,34,08,,,35*75
13.77582836151123:$GPGSV,6,3,22,09,18,087,33,10,,,33,11,63,284,22,12,48,290,27*48
13.809432983398438:$GPGSV,6,4,22,13,,,34,14,,,34,15,,,35,17,28,110,29*49
13.87630319595337:$GPGSV,6,5,22,19,49,099,,20,42,204,,25,20,316,35,46,40,207,33*79
13.942397832870483:$GPGSV,6,6,22,48,19,244,34,51,36,219,34*74
13.95468020439148:$GPGLL,,,,,192143.00,V,N*46
14.401631593704224:$GPRMC,192144.00,V,,,,,,,140523,,,N*77
14.40195631980896:$GPVTG,,,,,,,,,N*30
14.468236923217773:$GPGGA,192144.00,,,,,0,00,99.99,,,,,,*6D
14.501706600189209:$GPGSA,A,1,,,,,,,,,,,,,99.99,99.99,99.99*30
14.56813097000122:$GPGSV,6,1,21,01,,,33,02,,,35,03,,,33,04,10,056,32*4C
14.634804725646973:$GPGSV,6,2,21,05,16,205,25,06,58,037,33,07,,,32,08,,,32*7C
14.701442003250122:$GPGSV,6,3,21,09,18,087,,10,,,31,11,63,284,34,12,48,290,35*4D
14.735056638717651:$GPGSV,6,4,21,13,,,32,14,,,33,15,,,33,17,28,110,*46
14.801750898361206:$GPGSV,6,5,21,19,49,099,,20,42,204,33,25,20,316,32,46,40,207,33*7D
14.835024118423462:$GPGSV,6,6,21,51,36,219,35*47
14.86579704284668:$GPGLL,,,,,192144.00,V,N*41
15.393957376480103:$GPRMC,192145.00,V,,,,,,,140523,,,N*76
15.394287347793579:$GPVTG,,,,,,,,,N*30
15.460609912872314:$GPGGA,192145.00,,,,,0,00,99.99,,,,,,*6C
15.494199514389038:$GPGSA,A,1,,,,,,,,,,,,,99.99,99.99,99.99*30
15.560441255569458:$GPGSV,5,1,19,01,,,20,02,,,24,03,,,18,04,10,056,09*47
15.627185821533203:$GPGSV,5,2,19,05,16,205,11,06,58,037,16,07,,,24,08,,,11*72
15.693570852279663:$GPGSV,5,3,19,09,18,087,30,10,,,22,11,63,284,21,12,48,290,23*47
15.727295160293579:$GPGSV,5,4,19,13,,,15,14,,,20,15,,,12,17,28,110,21*49
15.793614864349365:$GPGSV,5,5,19,19,49,099,23,20,42,204,11,25,20,316,*46
15.816065311431885:$GPGLL,,,,,192145.00,V,N*40
16.401574850082397:$GPRMC,192146.00,V,,,,,,,140523,,,N*75
16.4018976688385:$GPVTG,,,,,,,,,N*30
16.468178510665894:$GPGGA,192146.00,,,,,0,03,2.65,,,,,,*5D
16.501691341400146:$GPGSA,A,1,06,19,20,,,,,,,,,,2.83,2.65,1.00*05
16.568013429641724:$GPGSV,3,1,12,03,,,16,04,10,056,35,05,16,205,12,06,58,037,48*49
16.63495397567749:$GPGSV,3,2,12,09,18,087,35,11,63,284,19,12,48,290,19,15,,,12*4A
16.701509714126587:$GPGSV,3,3,12,17,28,110,19,19,49,099,42,20,43,204,37,25,20,316,*7B
16.7303409576416:$GPGLL,,,,,192146.00,V,N*43
17.402467966079712:$GPRMC,192147.00,V,,,,,,,140523,,,N*74
17.402796745300293:$GPVTG,,,,,,,,,N*30
17.4688982963562:$GPGGA,192147.00,,,,,0,03,2.65,,,,,,*5C
17.502655267715454:$GPGSA,A,1,06,19,20,,,,,,,,,,2.83,2.65,1.00*05
17.56900930404663:$GPGSV,3,1,12,03,,,14,04,10,056,34,05,16,205,13,06,58,037,48*4B
17.635746955871582:$GPGSV,3,2,12,09,18,087,35,11,63,284,32,12,48,290,14,15,,,14*48
17.702331066131592:$GPGSV,3,3,12,17,28,110,,19,49,099,41,20,43,204,36,25,20,316,*71
17.729029655456543:$GPGLL,,,,,192147.00,V,N*42
18.402509927749634:$GPRMC,192148.00,V,,,,,,,140523,,,N*7B
18.40283489227295:$GPVTG,,,,,,,,,N*30
18.469125747680664:$GPGGA,192148.00,,,,,0,03,2.65,,,,,,*53
18.50263738632202:$GPGSA,A,1,06,19,20,,,,,,,,,,2.83,2.65,1.00*05
18.56915259361267:$GPGSV,3,1,10,04,10,056,34,05,16,205,40,06,58,037,48,09,18,087,35*70
18.668944120407104:$GPGSV,3,2,10,11,63,284,33,12,48,290,15,17,28,110,20,19,49,099,41*7C
18.702266931533813:$GPGSV,3,3,10,20,43,204,37,25,20,316,*7E
18.71437978744507:$GPGLL,,,,,192148.00,V,N*4D
19.452425718307495:$GPRMC,192149.00,V,,,,,,,140523,,,N*7A
19.452754974365234:$GPVTG,,,,,,,,,N*30
19.519033670425415:$GPGGA,192149.00,,,,,0,04,4.10,,,,,,*51
19.55239486694336:$GPGSA,A,1,06,19,12,20,,,,,,,,,29.68,4.10,29.39*0E
19.619234561920166:$GPGSV,3,1,10,04,10,056,34,05,16,205,40,06,58,037,48,09,18,087,35*70
19.71872854232788:$GPGSV,3,2,10,11,63,284,34,12,48,290,30,17,28,110,19,19,49,099,41*76
19.75217294692993:$GPGSV,3,3,10,20,43,204,37,25,20,316,*7E
19.768329620361328:$GPGLL,,,,,192149.00,V,N*4C
20.401161909103394:$GPRMC,192150.00,V,,,,,,,140523,,,N*72
20.401461362838745:$GPVTG,,,,,,,,,N*30
20.46759819984436:$GPGGA,192150.00,,,,,0,04,4.10,,,,,,*59
20.501293659210205:$GPGSA,A,1,06,19,12,20,,,,,,,,,29.68,4.10,29.39*0E
20.531865119934082:$GPGSV,3,1,t:
20.531973838806152:3000
20.532175540924072:APRS:start
21.567415237426758:APRS:end
21.634241104125977:10,04,10,056,34,05,16,205,39,06,58,037,48,09,18,087,35*7E
21.63458251953125:$GPG,06,58,037,27*46
21.700745820999146:$GPGSV,6,2,21,07,,,35,08,,,35,09,18,087,35,10,,,34*4E
21.76729655265808:$GPGSV,6,3,21,11,63,284,,12,48,290,31,13,,,34,14,,,34*75
21.83382558822632:$GPGSV,6,4,21,15,,,36,16,,,34,17,28,110,32,19,49,099,*71
21.900718688964844:$GPGSV,6,5,21,20,43,204,28,25,20,315,36,46,40,207,35,48,19,244,37*70
21.9339759349823:$GPGSV,6,6,21,51,36,219,36*44
21.944911003112793:$GPGLL,,,,,192151.00,V,N*45
22.392916917800903:$GPRMC,192152.00,V,,,,,,,140523,,,N*70
22.393146276474:$GPVTG,,,,,,,,,N*30
22.459393978118896:$GPGGA,192152.00,,,,,0,00,99.99,,,,,,*6A
22.493031978607178:$GPGSA,A,1,,,,,,,,,,,,,99.99,99.99,99.99*30
22.5597026348114:$GPGSV,5,1,20,03,,,29,04,10,056,22,05,16,205,30,06,58,037,28*42
22.6262469291687:$GPGSV,5,2,20,07,,,30,08,,,29,09,18,087,,10,,,29*4E
22.69278359413147:$GPGSV,5,3,20,11,63,284,23,12,48,290,,13,,,29,14,,,29*74
22.759364128112793:$GPGSV,5,4,20,15,,,27,17,28,110,27,19,49,099,21,20,43,204,33*47
22.825901985168457:$GPGSV,5,5,20,25,20,315,,46,40,207,29,48,19,244,32,51,36,219,29*76
22.83481526374817:$GPGLL,,,,,192152.00,V,N*46
23.389507055282593:$GPRMC,192153.00,V,,,,,,,140523,,,N*71
23.3898024559021:$GPVTG,,,,,,,,,N*30
23.45605230331421:$GPGGA,192153.00,,,,,0,00,99.99,,,,,,*6B
23.48971962928772:$GPGSA,A,1,,,,,,,,,,,,,99.99,99.99,99.99*30
23.55642318725586:$GPGSV,3,1,12,04,10,056,35,05,16,205,40,06,58,037,15,09,18,087,33*7D
23.62295937538147:$GPGSV,3,2,12,10,,,19,11,63,284,32,12,48,290,,15,,,12*7B
23.689364910125732:$GPGSV,3,3,12,17,28,110,,19,49,099,36,20,43,204,17,25,20,315,*71
23.711695909500122:$GPGLL,,,,,192153.00,V,N*47
24.389493227005005:$GPRMC,192154.00,V,,,,,,,140523,,,N*76
24.389825105667114:$GPVTG,,,,,,,,,N*30
24.455953359603882:$GPGGA,192154.00,,,,,0,00,99.99,,,,,,*6C
24.489635705947876:$GPGSA,A,1,,,,,,,,,,,,,99.99,99.99,99.99*30
24.556318998336792:$GPGSV,3,1,11,04,10,056,35,05,16,205,39,06,58,037,47,09,18,087,33*77
24.622798681259155:$GPGSV,3,2,11,10,,,16,11,63,284,34,12,48,290,,17,28,110,*4A
24.689080715179443:$GPGSV,3,3,11,19,49,099,14,20,43,204,16,25,20,315,*4F
24.703269004821777:$GPGLL,,,,,192154.00,V,N*40
25.3993718624115:$GPRMC,192155.00,V,,,,,,,140523,,,N*77
25.39969563484192:$GPVTG,,,,,,,,,N*30
25.465919494628906:$GPGGA,192155.00,,,,,0,00,99.99,,,,,,*6D
25.499356746673584:$GPGSA,A,1,,,,,,,,,,,,,99.99,99.99,99.99*30
25.56588125228882:$GPGSV,3,1,11,04,10,056,34,05,16,205,39,06,58,037,49,09,18,087,33*78
25.632715463638306:$GPGSV,3,2,11,10,,,14,11,63,284,34,12,48,290,24,17,28,110,24*48
25.69912099838257:$GPGSV,3,3,11,19,49,099,,20,43,204,33,25,20,315,*4D
25.715196132659912:$GPGLL,,,,,192155.00,V,N*41
26.411057710647583:$GPRMC,192156.00,V,,,,,,,140523,,,N*74
26.411388397216797:$GPVTG,,,,,,,,,N*30
26.477457761764526:$GPGGA,192156.00,,,,,0,04,3.34,,,,,,*5E
26.511008262634277:$GPGSA,A,1,06,19,20,17,,,,,,,,,7.90,3.34,7.16*00
26.577638626098633:$GPGSV,3,1,11,04,10,056,34,05,16,205,39,06,58,037,49,09,18,087,33*78
26.644412755966187:$GPGSV,3,2,11,10,,,11,11,63,284,34,12,48,290,,17,28,110,24*4B
26.71083641052246:$GPGSV,3,3,11,19,49,099,42,20,43,204,33,25,20,315,*4B
26.73127508163452:$GPGLL,,,,,192156.00,V,N*42
27.405144691467285:$GPRMC,192157.00,V,,,,,,,140523,,,N*75
27.405565977096558:$GPVTG,,,,,,,,,N*30
27.471696853637695:$GPGGA,192157.00,,,,,0,04,3.34,,,,,,*5F
27.505287647247314:$GPGSA,A,1,06,19,20,17,,,,,,,,,7.90,3.34,7.16*00
27.57162642478943:$GPGSV,3,1,11,04,10,056,34,05,16,205,38,06,58,037,49,09,18,087,33*79
27.638200044631958:$GPGSV,3,2,11,10,,,11,11,63,284,34,12,48,290,,17,28,110,23*4C
27.704993963241577:$GPGSV,3,3,11,19,49,099,42,20,43,204,37,25,20,315,*4F
27.72550678253174:$GPGLL,,,,,192157.00,V,N*43
28.401001691818237:$GPRMC,192158.00,V,,,,,,,140523,,,N*7A
28.401326179504395:$GPVTG,,,,,,,,,N*30
28.467580795288086:$GPGGA,192158.00,,,,,0,04,3.34,,,,,,*50
28.501143217086792:$GPGSA,A,1,06,19,20,17,,,,,,,,,7.90,3.34,7.16*00
28.567519903182983:$GPGSV,3,1,11,04,10,056,34,05,16,205,40,06,58,037,49,09,18,087,33*76
28.63448929786682:$GPGSV,3,2,11,10,,,11,11,63,284,33,12,48,290,,17,28,110,22*4A
28.667162895202637:$GPGSV,3,3t:
28.667282104492188:3000
28.667460680007935:APRS:start
29.70342183113098:APRS:end
29.736944913864136:,11,19,49,099,41,20,43,204,37,25,20,315,*4C
29.803496599197388:$GPGLL,,,,,192158.,20,16,,,33,17,28,110,35,18,,,33,19,49,099,30*78
29.87040638923645:$GPGSV,5,5,20,20,43,204,,25,20,315,,46,40,207,36,51,36,219,35*71
29.900020122528076:$GPGLL,,,,,192159.00,V,N*4D
30.392378330230713:$GPRMC,192200.00,V,,,,,,,140523,,,N*74
30.392704725265503:$GPVTG,,,,,,,,,N*30
30.45899510383606:$GPGGA,192200.00,,,,,0,00,99.99,,,,,,*6E
30.492379665374756:$GPGSA,A,1,,,,,,,,,,,,,99.99,99.99,99.99*30
30.559191465377808:$GPGSV,6,1,22,03,,,31,04,10,056,28,05,16,205,32,06,58,037,*48
30.62556791305542:$GPGSV,6,2,22,07,,,31,08,,,31,09,18,087,,10,,,30*4F
30.692041158676147:$GPGSV,6,3,22,11,63,284,26,12,48,290,,13,,,31,14,,,31*70
30.725769996643066:$GPGSV,6,4,22,15,,,32,16,,,30,17,28,110,31,18,,,31*4F
30.792314767837524:$GPGSV,6,5,22,19,49,099,26,20,43,204,36,25,20,315,,46,40,207,32*7D
30.85875654220581:$GPGSV,6,6,22,48,19,244,33,51,36,219,34*73
30.867624044418335:$GPGLL,,,,,192200.00,V,N*42
31.39543843269348:$GPRMC,192201.00,V,,,,,,,140523,,,N*75
31.3957622051239:$GPVTG,,,,,,,,,N*30
31.461816787719727:$GPGGA,192201.00,,,,,0,00,99.99,,,,,,*6F
31.495471954345703:$GPGSA,A,1,,,,,,,,,,,,,99.99,99.99,99.99*30
31.562117338180542:$GPGSV,4,1,13,04,10,056,10,05,16,205,22,06,58,037,47,09,18,087,33*7F
31.62854766845703:$GPGSV,4,2,13,11,63,284,31,12,48,290,,14,,,22,15,,,23*70
31.695356369018555:$GPGSV,4,3,13,16,,,20,17,28,110,25,19,49,099,42,20,43,204,34*45
31.72884464263916:$GPGSV,4,4,13,25,20,315,*49
31.74712061882019:$GPGLL,,,,,192201.00,V,N*43
32.402127742767334:$GPRMC,192202.00,V,,,,,,,140523,,,N*76
32.40242600440979:$GPVTG,,,,,,,,,N*30
32.46871638298035:$GPGGA,192202.00,,,,,0,03,35.12,,,,,,*6A
32.50229454040527:$GPGSA,A,1,06,19,17,,,,,,,,,,35.13,35.12,1.00*08
32.56903266906738:$GPGSV,3,1,12,04,10,056,09,05,16,205,19,06,58,037,48,09,18,087,34*71
32.63561749458313:$GPGSV,3,2,12,11,63,284,32,12,48,290,20,14,,,18,15,,,19*77
32.702258825302124:$GPGSV,3,3,12,17,28,110,26,19,49,099,42,20,43,204,35,25,20,315,*76
32.73418641090393:$GPGLL,,,,,192202.00,V,N*40
33.39631938934326:$GPRMC,192203.00,V,,,,,,,140523,,,N*77
33.39674782752991:$GPVTG,,,,,,,,,N*30
33.4630069732666:$GPGGA,192203.00,,,,,0,00,99.99,,,,,,*6D
33.496403217315674:$GPGSA,A,1,,,,,,,,,,,,,99.99,99.99,99.99*30
33.563084840774536:$GPGSV,3,1,11,04,10,056,31,05,16,205,36,06,58,037,48,09,18,087,34*74
33.62961983680725:$GPGSV,3,2,11,11,63,284,32,12,48,290,,15,,,12,17,28,110,26*49
33.695945262908936:$GPGSV,3,3,11,19,49,099,42,20,43,204,34,25,20,315,*4C
33.71225309371948:$GPGLL,,,,,192203.00,V,N*41
34.39253878593445:$GPRMC,192204.00,V,,,,,,,140523,,,N*70
34.3928656578064:$GPVTG,,,,,,,,,N*30
34.45920276641846:$GPGGA,192204.00,,,,,0,00,99.99,,,,,,*6A
34.49237370491028:$GPGSA,A,1,,,,,,,,,,,,,99.99,99.99,99.99*30
34.55921959877014:$GPGSV,3,1,10,04,10,056,,05,16,205,35,06,58,037,48,09,18,087,33*73
34.62593173980713:$GPGSV,3,2,10,11,63,284,32,12,48,290,,17,28,110,26,19,49,099,42*7C
34.69223237037659:$GPGSV,3,3,10,20,43,204,32,25,20,315,*78
34.69805979728699:$GPGLL,,,,,192204.00,V,N*46
35.39366054534912:$GPRMC,192205.00,V,,,,,,,140523,,,N*71
35.39398741722107:$GPVTG,,,,,,,,,N*30
35.46042728424072:$GPGGA,192205.00,,,,,0,00,99.99,,,,,,*6B
35.49372482299805:$GPGSA,A,1,,,,,,,,,,,,,99.99,99.99,99.99*30
35.56051588058472:$GPGSV,3,1,10,04,10,056,,05,16,205,34,06,58,037,48,09,18,087,33*72
35.62722325325012:$GPGSV,3,2,10,11,63,284,32,12,48,290,,17,28,110,25,19,49,099,42*7F
35.69340896606445:$GPGSV,3,3,10,20,43,204,32,25,20,315,*78
35.699108362197876:$GPGLL,,,,,192205.00,V,N*47
36.40108132362366:$GPRMC,192206.00,V,,,,,,,140523,,,N*72
36.40138030052185:$GPVTG,,,,,,,,,N*30
36.46748638153076:$GPGGA,192206.00,,,,,0,03,2.64,,,,,,*5B
36.50117468833923:$GPGSA,A,1,06,19,20,,,,,,,,,,2.83,2.64,1.00*04
36.56779932975769:$GPGSV,3,1,10,04,10,056,,05,16,205,35,06,58,037,48,09,18,087,33*73
36.63453960418701:$GPGSV,3,2,10,11,63,284,33,12,48,290,,17,28,110,25,19,49,099,42*7E
36.70082998275757:$GPGSV,3,3,10,20,43,204,32,25,20,315,*78
36.70880174636841:$GPGLL,,,,,192206.00,V,N*44
37.404813289642334:$GPRMC,192207.00,V,,,,,,,140523,,,N*73
37.405147314071655:$GPVTG,,,,,,,,,N*30
37.42937755584717:$Gt:
37.42949557304382:3000
37.42967700958252:APRS:start
38.466675758361816:APRS:end
38.50007367134094:PGGA,192207.00,,,,,0,03,2.64,,,,,,*5A
38.53318548202515:$GPGSA,A,1,06,19,20,,,,,,*66
38.56676387786865:$GPGSA,A,1,,,,,,,,,,,,,99.99,99.99,99.99*30
38.633320569992065:$GPGSV,6,1,22,03,,,32,04,10,056,29,05,16,205,,06,58,037,27*4E
38.69963049888611:$GPGSV,6,2,22,07,,,30,08,,,29,09,18,087,28,10,,,33*4E
38.766292095184326:$GPGSV,6,3,22,11,63,284,,12,48,290,29,13,,,30,14,,,33*7C
38.83278799057007:$GPGSV,6,4,22,15,,,30,16,,,32,17,28,110,27,18,,,33*4A
38.899386405944824:$GPGSV,6,5,22,19,49,099,,20,43,204,25,25,20,315,32,46,40,207,33*7B
38.932883501052856:$GPGSV,6,6,22,48,19,244,34,51,36,219,31*71
38.95227003097534:$GPGLL,,,,,192208.00,V,N*4A
39.407225608825684:$GPRMC,192209.00,V,,,,,,,140523,,,N*7D
39.40755248069763:$GPVTG,,,,,,,,,N*30
39.473798751831055:$GPGGA,192209.00,,,,,0,00,99.99,,,,,,*67
39.50717639923096:$GPGSA,A,1,,,,,,,,,,,,,99.99,99.99,99.99*30
39.57384777069092:$GPGSV,6,1,23,02,,,31,03,,,32,04,10,056,,05,16,205,29*75
39.64032435417175:$GPGSV,6,2,23,06,58,037,33,07,,,32,08,,,31,09,18,087,29*7B
39.70681142807007:$GPGSV,6,3,23,10,,,30,11,63,284,29,12,48,290,29,13,,,30*71
39.74041986465454:$GPGSV,6,4,23,14,,,32,15,,,32,16,,,31,17,28,110,28*48
39.80704140663147:$GPGSV,6,5,23,18,,,32,19,49,099,31,20,43,204,32,25,20,315,31*46
39.873841285705566:$GPGSV,6,6,23,46,40,207,32,48,19,244,33,51,36,219,33*47
39.89731192588806:$GPGLL,,,,,192209.00,V,N*4B
40.394355058670044:$GPRMC,192210.00,V,,,,,,,140523,,,N*75
40.3946795463562:$GPVTG,,,,,,,,,N*30
40.4609477519989:$GPGGA,192210.00,,,,,0,00,99.99,,,,,,*6F
40.4944486618042:$GPGSA,A,1,,,,,,,,,,,,,99.99,99.99,99.99*30
40.56089949607849:$GPGSV,5,1,20,02,,,09,03,,,08,04,10,056,25,05,16,205,34*7C
40.627559423446655:$GPGSV,5,2,20,06,58,037,12,07,,,09,08,,,21,09,18,087,16*7D
40.69410967826843:$GPGSV,5,3,20,10,,,22,11,63,284,18,12,48,290,17,13,,,20*7C
40.72763657569885:$GPGSV,5,4,20,14,,,09,15,,,12,16,,,23,17,28,110,27*4E
40.79432201385498:$GPGSV,5,5,20,18,,,23,19,49,099,21,20,43,204,12,25,20,315,22*47
40.82731080055237:$GPGLL,,,,,192210.00,V,N*43
41.40254330635071:$GPRMC,192211.00,V,,,,,,,140523,,,N*74
41.40287184715271:$GPVTG,,,,,,,,,N*30
41.469205141067505:$GPGGA,192211.00,,,,,0,00,99.99,,,,,,*6E
41.50265097618103:$GPGSA,A,1,,,,,,,,,,,,,99.99,99.99,99.99*30
41.569072008132935:$GPGSV,4,1,16,02,,,09,03,,,07,04,10,056,,05,16,205,35*71
41.63568592071533:$GPGSV,4,2,16,06,58,037,28,07,,,08,09,18,087,15,10,,,19*70
41.70212483406067:$GPGSV,4,3,16,11,63,284,15,12,48,290,14,14,,,09,15,,,12*7C
41.768813610076904:$GPGSV,4,4,16,17,28,110,26,19,49,099,43,20,43,204,31,25,20,315,*77
41.77867245674133:$GPGLL,,,,,192211.00,V,N*42
42.40613341331482:$GPRMC,192212.00,V,,,,,,,140523,,,N*77
42.40650820732117:$GPVTG,,,,,,,,,N*30
42.47259736061096:$GPGGA,192212.00,,,,,0,03,5.60,,,,,,*5D
42.50621199607849:$GPGSA,A,1,19,20,17,,,,,,,,,,5.69,5.60,1.00*04
42.572741985321045:$GPGSV,4,1,14,02,,,11,03,,,08,04,10,056,21,05,16,205,37*74
42.63926315307617:$GPGSV,4,2,14,06,58,037,09,09,18,087,11,11,63,284,31,12,48,290,*7E
42.70600199699402:$GPGSV,4,3,14,14,,,10,15,,,13,17,28,110,25,19,49,099,42*71
42.73963499069214:$GPGSV,4,4,14,20,43,204,31,25,20,315,25*78
42.77010726928711:$GPGLL,,,,,192212.00,V,N*41
43.40616464614868:$GPRMC,192213.00,V,,,,,,,140523,,,N*76
43.406489849090576:$GPVTG,,,,,,,,,N*30
43.47277235984802:$GPGGA,192213.00,,,,,0,03,5.60,,,,,,*5C
43.50620245933533:$GPGSA,A,1,19,20,17,,,,,,,,,,5.69,5.60,1.00*04
43.57289958000183:$GPGSV,4,1,14,02,,,12,04,10,056,21,05,16,205,38,06,58,037,47*4F
43.639551639556885:$GPGSV,4,2,14,08,,,28,09,18,087,30,11,63,284,31,12,48,290,*49
43.705931186676025:$GPGSV,4,3,14,14,,,10,15,,,11,17,28,110,24,19,49,099,42*72
43.73944139480591:$GPGSV,4,4,14,20,43,204,33,25,20,315,23*7C
43.77018761634827:$GPGLL,,,,,192213.00,V,N*40
44.40112566947937:$GPRMC,192214.00,V,,,,,,,140523,,,N*71
44.40144896507263:$GPVTG,,,,,,,,,N*30
44.46771836280823:$GPGGA,192214.00,,,,,0,03,2.64,,,,,,*58
44.501134157180786:$GPGSA,A,1,06,19,20,,,,,,,,,,2.82,2.64,1.00*05
44.56779766082764:$GPGSV,4,1,14,02,,,13,04,10,056,21,05,16,205,38,06,58,037,48*41
44.63076400756836:$GPGSV,4,2,14,09,18,087,32,10,,,27,11,63,284,t:
44.63088130950928:3000
44.63111162185669:APRS:start
45.66806626319885:APRS:end
45.668593883514404:30,12,48,290,19*44
45.767491817474365:$GPGSV,4,3,14,14,,,10,15,,,10,17,28,110,21,90,34,14,,,34,15,,,33*7C
45.83431625366211:$GPGSV,5,4,19,17,28,110,31,19,49,099,26,20,43,204,,25,20,315,27*7B
45.86789035797119:$GPGSV,5,5,19,46,40,207,34,48,19,244,35,51,36,219,33*4E
45.90084218978882:$GPGLL,,,,,192215.00,V,N*46
46.389341831207275:$GPRMC,192216.00,V,,,,,,,140523,,,N*73
46.38966989517212:$GPVTG,,,,,,,,,N*30
46.45601487159729:$GPGGA,192216.00,,,,,0,00,99.99,,,,,,*69
46.489468574523926:$GPGSA,A,1,,,,,,,,,,,,,99.99,99.99,99.99*30
46.55610513687134:$GPGSV,5,1,19,02,,,31,04,10,056,34,05,16,205,37,06,58,038,31*47
46.62255501747131:$GPGSV,5,2,19,07,,,31,08,,,30,09,18,087,,10,,,31*44
46.6891131401062:$GPGSV,5,3,19,11,63,284,,12,48,290,31,14,,,33,15,,,37*7F
46.75572633743286:$GPGSV,5,4,19,17,28,110,25,19,49,099,29,20,43,204,31,25,20,315,*76
46.8230414390564:$GPGSV,5,5,19,46,40,207,33,48,19,244,35,51,36,219,35*4F
46.82350730895996:$GPGLL,,,,,192216.00,V,N*45
47.38917565345764:$GPRMC,192217.00,V,,,,,,,140523,,,N*72
47.38950037956238:$GPVTG,,,,,,,,,N*30
47.45585751533508:$GPGGA,192217.00,,,,,0,00,99.99,,,,,,*68
47.48933672904968:$GPGSA,A,1,,,,,,,,,,,,,99.99,99.99,99.99*30
47.55585503578186:$GPGSV,3,1,12,04,10,056,,05,16,205,37,06,58,038,49,07,,,19*4D
47.62243604660034:$GPGSV,3,2,12,08,,,15,09,18,087,,11,63,284,,12,48,290,*47
47.688894748687744:$GPGSV,3,3,12,17,28,110,,19,49,099,44,20,43,204,35,25,20,315,*74
47.70520901679993:$GPGLL,,,,,192217.00,V,N*44
48.389344692230225:$GPRMC,192218.00,V,,,,,,,140523,,,N*7D
48.389670848846436:$GPVTG,,,,,,,,,N*30
48.45615196228027:$GPGGA,192218.00,,,,,0,00,99.99,,,,,,*67
48.4896194934845:$GPGSA,A,1,,,,,,,,,,,,,99.99,99.99,99.99*30
48.556175231933594:$GPGSV,3,1,12,04,10,056,,05,16,205,38,06,58,038,48,07,,,16*4C
48.62274956703186:$GPGSV,3,2,12,08,,,14,09,18,087,32,11,63,284,31,12,48,290,*45
48.68921613693237:$GPGSV,3,3,12,17,28,110,,19,49,099,43,20,43,204,34,25,20,315,*72
48.70978903770447:$GPGLL,,,,,192218.00,V,N*4B
49.39099955558777:$GPRMC,192219.00,V,,,,,,,140523,,,N*7C
49.39129567146301:$GPVTG,,,,,,,,,N*30
49.45759201049805:$GPGGA,192219.00,,,,,0,00,99.99,,,,,,*66
49.49108958244324:$GPGSA,A,1,,,,,,,,,,,,,99.99,99.99,99.99*30
49.55738949775696:$GPGSV,3,1,11,04,10,056,,05,16,205,37,06,58,038,48,07,,,13*45
49.62415862083435:$GPGSV,3,2,11,09,18,087,32,11,63,284,32,12,48,290,,17,28,110,*74
49.690540075302124:$GPGSV,3,3,11,19,49,099,43,20,43,204,,25,20,315,*4A
49.700490951538086:$GPGLL,,,,,192219.00,V,N*4A
50.38965129852295:$GPRMC,192220.00,V,,,,,,,140523,,,N*76
50.38997721672058:$GPVTG,,,,,,,,,N*30
50.45601749420166:$GPGGA,192220.00,,,,,0,00,99.99,,,,,,*6C
50.48980784416199:$GPGSA,A,1,,,,,,,,,,,,,99.99,99.99,99.99*30
50.556435346603394:$GPGSV,3,1,11,04,10,056,,05,16,205,37,06,58,038,48,07,,,10*46
50.623053312301636:$GPGSV,3,2,11,09,18,087,32,11,63,285,32,12,48,290,25,17,28,110,*72
50.68962097167969:$GPGSV,3,3,11,19,49,099,43,20,43,204,31,25,20,315,*48
50.70369911193848:$GPGLL,,,,,192220.00,V,N*40
51.39181661605835:$GPRMC,192221.00,V,,,,,,,140523,,,N*77
51.392412185668945:$GPVTG,,,,,,,,,N*30
51.458446979522705:$GPGGA,192221.00,,,,,0,00,99.99,,,,,,*6D
51.49198031425476:$GPGSA,A,1,,,,,,,,,,,,,99.99,99.99,99.99*30
51.55864953994751:$GPGSV,3,1,10,04,10,056,,05,16,205,37,06,58,038,48,09,18,087,32*7F
51.625481367111206:$GPGSV,3,2,10,11,63,285,32,12,48,289,26,17,28,110,,19,49,099,43*74
51.69138550758362:$GPGSV,3,3,10,20,43,204,35,25,20,315,*7F
51.697168588638306:$GPGLL,,,,,192221.00,V,N*41
52.390105962753296:$GPRMC,192222.00,V,,,,,,,140523,,,N*74
52.39053678512573:$GPVTG,,,,,,,,,N*30
52.45687937736511:$GPGGA,192222.00,,,,,0,00,99.99,,,,,,*6E
52.49032974243164:$GPGSA,A,1,,,,,,,,,,,,,99.99,99.99,99.99*30
52.55702471733093:$GPGSV,3,1,11,04,10,056,,05,16,205,37,06,58,038,48,09,18,087,32*7E
52.62333798408508:$GPGSV,3,2,11,11,63,285,32,12,48,289,27,17,28,110,26,19,49,099,43*70
52.68997240066528:$GPGSV,3,3,11,20,43,204,35,21,,,29,25,20,315,*76
52.7063775062561:$GPGLL,,,,,192222.00,V,N*42
53.394466400146484:$GPRMC,192223.00,V,,,,,,,140523,,,N*75
53.39473605155945:$GPVTG,,,,,,,,,N*30
53.46069812774658:$GPGGA,192223.00,,,,,0,00,99.99,,,,,,*6F
53.46078848838806:t:
53.46088433265686:3000
53.46106290817261:APRS:start
54.497896909713745:APRS:end
54.53135395050049:$GPGSA,A,1,,,,,,,,,,,,,99.99,99.99,99.99*30
54.56455707550049:$GPGSV,3,1,10,04,199*30
54.631256341934204:$GPGSV,4,1,14,04,10,056,26,05,16,205,,06,58,038,24,09,18,087,*77
54.697630167007446:$GPGSV,4,2,14,11,63,285,,12,48,289,,16,,,28,17,28,110,*4D
54.76428031921387:$GPGSV,4,3,14,18,,,30,19,49,099,29,20,43,204,22,21,,,32*7E
54.797669649124146:$GPGSV,4,4,14,25,20,315,,46,40,207,33*7D
54.8170907497406:$GPGLL,,,,,192224.00,V,N*44
55.390862703323364:$GPRMC,192225.00,V,,,,,,,140523,,,N*73
55.39123320579529:$GPVTG,,,,,,,,,N*30
55.457499265670776:$GPGGA,192225.00,,,,,0,00,99.99,,,,,,*69
55.49097394943237:$GPGSA,A,1,,,,,,,,,,,,,99.99,99.99,99.99*30
55.557541608810425:$GPGSV,4,1,15,04,10,056,,05,16,205,,06,58,038,23,09,18,087,30*76
55.62403464317322:$GPGSV,4,2,15,11,63,285,33,12,48,289,,16,,,27,17,28,110,28*49
55.690542697906494:$GPGSV,4,3,15,18,,,27,19,49,099,27,20,43,204,,21,,,27*73
55.7576847076416:$GPGSV,4,4,15,22,,,29,25,20,315,,46,40,207,30*74
55.758137226104736:$GPGLL,,,,,192225.00,V,N*45
56.3914897441864:$GPRMC,192226.00,V,,,,,,,140523,,,N*70
56.39181351661682:$GPVTG,,,,,,,,,N*30
56.45813298225403:$GPGGA,192226.00,,,,,0,00,99.99,,,,,,*6A
56.491562843322754:$GPGSA,A,1,,,,,,,,,,,,,99.99,99.99,99.99*30
56.5583815574646:$GPGSV,4,1,13,04,10,056,33,05,16,205,37,06,58,038,49,09,18,087,34*7C
56.625012159347534:$GPGSV,4,2,13,11,63,285,17,12,48,289,30,17,27,110,17,18,,,16*45
56.69140577316284:$GPGSV,4,3,13,19,49,099,,20,43,204,38,21,,,14,22,,,14*72
56.7246253490448:$GPGSV,4,4,13,25,20,315,*49
56.74299478530884:$GPGLL,,,,,192226.00,V,N*46
57.44726037979126:$GPRMC,192227.00,V,,,,,,,140523,,,N*71
57.447587728500366:$GPVTG,,,,,,,,,N*30
57.51383090019226:$GPGGA,192227.00,,,,,0,04,1.59,,,,,,*52
57.54724955558777:$GPGSA,A,1,06,19,12,20,,,,,,,,,1.88,1.59,1.00*02
57.61395740509033:$GPGSV,4,1,13,04,10,056,34,05,16,205,37,06,58,038,48,09,18,087,33*7D
57.6807804107666:$GPGSV,4,2,13,11,63,285,13,12,48,289,30,17,27,110,16,18,,,12*44
57.747138261795044:$GPGSV,4,3,13,19,49,099,44,20,43,204,37,21,,,14,22,,,11*78
57.78021216392517:$GPGSV,4,4,13,25,20,315,*49
57.80493974685669:$GPGLL,,,,,192227.00,V,N*47
58.404717445373535:$GPRMC,192228.00,V,,,,,,,140523,,,N*7E
58.40504264831543:$GPVTG,,,,,,,,,N*30
58.47135543823242:$GPGGA,192228.00,,,,,0,04,3.99,,,,,,*53
58.50493502616882:$GPGSA,A,1,06,19,12,20,,,,,,,,,29.63,3.99,29.36*0C
58.571216106414795:$GPGSV,3,1,12,04,10,056,34,05,16,205,37,06,58,038,48,09,18,087,33*7B
58.63820433616638:$GPGSV,3,2,12,11,63,285,,12,48,289,29,17,27,110,15,18,,,09*41
58.70476007461548:$GPGSV,3,3,12,19,49,099,44,20,43,204,37,22,,,10,25,20,315,*4B
58.73559927940369:$GPGLL,,,,,192228.00,V,N*48
59.407485008239746:$GPRMC,192229.00,V,,,,,,,140523,,,N*7F
59.40780758857727:$GPVTG,,,,,,,,,N*30
59.47414445877075:$GPGGA,192229.00,,,,,0,04,3.99,,,,,,*52
59.507514238357544:$GPGSA,A,1,06,19,12,20,,,,,,,,,29.63,3.99,29.36*0C
59.57443141937256:$GPGSV,4,1,13,04,10,056,33,05,16,205,36,06,58,038,47,09,18,087,32*75
59.67398715019226:$GPGSV,4,2,13,11,63,285,32,12,48,289,30,17,27,110,14,19,49,099,43*7D
59.740485191345215:$GPGSV,4,3,13,20,43,204,36,22,,,10,24,-2,244,29,25,20,315,28*53
59.774306297302246:$GPGSV,4,4,13,27,,,27*7B
59.774762868881226:$GPGLL,,,,,192229.00,V,N*49
60.42105722427368:$GPRMC,192230.00,V,,,,,,,140523,,,N*77
60.42138338088989:$GPVTG,,,,,,,,,N*30
60.48770523071289:$GPGGA,192230.00,,,,,0,04,3.99,,,,,,*5A
60.52118372917175:$GPGSA,A,1,06,19,12,20,,,,,,,,,29.63,3.99,29.36*0C
60.587801694869995:$GPGSV,3,1,12,04,10,056,33,05,16,205,36,06,58,038,48,09,18,087,32*7C
60.68740749359131:$GPGSV,3,2,12,11,63,285,32,12,48,289,31,17,27,110,13,19,49,099,43*7D
60.7212553024292:$GPGSV,3,3,12,20,43,204,36,22,,,11,25,20,315,,29,,,29*7E
60.75413274765015:$GPGLL,,,,,192230.00,V,N*41
61.40941667556763:$GPRMC,192231.00,V,,,,,,,140523,,,N*76
61.409740686416626:$GPVTG,,,,,,,,,N*30
61.475998878479004:$GPGGA,192231.00,,,,,0,04,3.98,,,,,,*5A
61.50959658622742:$GPGSA,A,1,06,19,12,20,,,,,,,,,29.63,3.98,29.36*0D
61.57633638381958:$GPGSV,3,1,11,04,10,056,33,05,16,205,36,06,58,038,48,09,18,087,32*7F
61.64264631271362:$GPGSV,3,2,11,11,63,285,33,12,48,289,30,17,27,110,,19,49,0t:
61.661718130111694:3000
61.661935806274414:APRS:start
62.69433641433716:APRS:end
62.694478273391724:99,43*7C
62.76090216636658:$GPGSV,3,3,11,20,43,204,36,22,,,11,25,20,315,*7D
62.761176109313965:$GP5,20,315,*71
62.82745409011841:$GPGSV,5,4,20,26,,,31,27,,,36,28,,,33,30,,,29*7E
62.89399242401123:$GPGSV,5,5,20,32,,,33,46,40,207,36,48,19,244,34,51,36,219,36*43
62.904133319854736:$GPGLL,,,,,192232.00,V,N*43
63.40272307395935:$GPRMC,192233.00,V,,,,,,,140523,,,N*74
63.40309000015259:$GPVTG,,,,,,,,,N*30
63.469236850738525:$GPGGA,192233.00,,,,,0,00,99.99,,,,,,*6E
63.502705335617065:$GPGSA,A,1,,,,,,,,,,,,,99.99,99.99,99.99*30
63.569573163986206:$GPGSV,6,1,21,04,10,056,30,05,16,205,25,06,58,038,27,09,18,087,31*72
63.63603162765503:$GPGSV,6,2,21,11,63,285,,12,48,289,30,17,27,110,28,19,49,099,23*76
63.70261597633362:$GPGSV,6,3,21,20,43,204,24,22,,,31,23,,,29,25,20,315,*70
63.76897883415222:$GPGSV,6,4,21,26,,,30,27,,,31,28,,,29,29,,,30*71
63.83557391166687:$GPGSV,6,5,21,30,,,29,32,,,29,46,40,207,32,48,19,244,33*7F
63.86903142929077:$GPGSV,6,6,21,51,36,219,33*41
63.87376856803894:$GPGLL,,,,,192233.00,V,N*42
64.3928165435791:$GPRMC,192234.00,V,,,,,,,140523,,,N*73
64.393146276474:$GPVTG,,,,,,,,,N*30
64.45927548408508:$GPGGA,192234.00,,,,,0,00,99.99,,,,,,*69
64.4928867816925:$GPGSA,A,1,,,,,,,,,,,,,99.99,99.99,99.99*30
64.55957555770874:$GPGSV,5,1,18,04,10,056,20,05,16,205,35,06,58,038,23,09,18,087,23*7C
64.62618160247803:$GPGSV,5,2,18,11,63,285,,12,48,289,19,17,27,110,09,19,49,099,18*7F
64.69262671470642:$GPGSV,5,3,18,20,43,204,37,22,,,23,23,,,13,25,20,315,20*73
64.75930786132812:$GPGSV,5,4,18,26,,,19,27,,,21,28,,,14,29,,,21*7C
64.79264688491821:$GPGSV,5,5,18,30,,,16,32,,,17*73
64.80657029151917:$GPGLL,,,,,192234.00,V,N*45
65.40184712409973:$GPRMC,192235.00,V,,,,,,,140523,,,N*72
65.40217423439026:$GPVTG,,,,,,,,,N*30
65.46844029426575:$GPGGA,192235.00,,,,,0,03,2.64,,,,,,*5B
65.50196862220764:$GPGSA,A,1,06,20,19,,,,,,,,,,2.82,2.64,1.00*05
65.56851315498352:$GPGSV,3,1,11,04,10,056,16,05,16,205,35,06,58,038,48,09,18,087,*7A
65.63527607917786:$GPGSV,3,2,11,11,63,285,33,12,48,289,,17,27,110,08,19,49,099,44*70
65.70151209831238:$GPGSV,3,3,11,20,43,204,38,25,20,315,18,30,,,25*7E
65.71989941596985:$GPGLL,,,,,192235.00,V,N*44
66.39902806282043:$GPRMC,192236.00,V,,,,,,,140523,,,N*71
66.39929676055908:$GPVTG,,,,,,,,,N*30
66.46558952331543:$GPGGA,192236.00,,,,,0,03,2.64,,,,,,*58
66.4992196559906:$GPGSA,A,1,06,20,19,,,,,,,,,,2.82,2.64,1.00*05
66.5657856464386:$GPGSV,3,1,11,04,10,056,12,05,16,205,35,06,58,038,48,09,18,087,31*7C
66.66546678543091:$GPGSV,3,2,11,11,63,285,34,12,48,289,29,17,27,110,14,19,49,099,44*71
66.69885444641113:$GPGSV,3,3,11,20,43,204,38,25,20,315,,30,,,24*76
66.71947717666626:$GPGLL,,,,,192236.00,V,N*47
67.40995812416077:$GPRMC,192237.00,V,,,,,,,140523,,,N*70
67.4102828502655:$GPVTG,,,,,,,,,N*30
67.47657799720764:$GPGGA,192237.00,,,,,0,05,1.76,,,,,,*5F
67.51014065742493:$GPGSA,A,1,06,12,20,17,19,,,,,,,,5.15,1.76,4.84*00
67.57689118385315:$GPGSV,3,1,10,04,10,056,09,05,16,205,35,06,58,038,48,09,18,087,31*77
67.67634010314941:$GPGSV,3,2,10,11,63,285,34,12,48,289,30,17,27,110,19,19,49,099,44*75
67.70983934402466:$GPGSV,3,3,10,20,43,204,38,25,20,315,*72
67.72612643241882:$GPGLL,,,,,192237.00,V,N*46
68.40515041351318:$GPRMC,192238.00,V,,,,,,,140523,,,N*7F
68.40544629096985:$GPVTG,,,,,,,,,N*30
68.471759557724:$GPGGA,192238.00,,,,,0,05,1.76,,,,,,*50
68.50491094589233:$GPGSA,A,1,06,12,20,17,19,,,,,,,,5.15,1.76,4.84*00
68.57192707061768:$GPGSV,3,1,10,04,10,056,35,05,16,205,34,06,58,038,48,09,18,087,30*78
68.67164087295532:$GPGSV,3,2,10,11,63,285,33,12,48,289,30,17,27,110,29,19,49,099,44*71
68.70518755912781:$GPGSV,3,3,10,20,43,204,38,25,20,315,*72
68.72123956680298:$GPGLL,,,,,192238.00,V,N*49
69.43802833557129:$GPRMC,192239.00,A,3938.23101,N,07957.12790,W,0.230,,140523,,,A*61
69.47152352333069:$GPVTG,,T,,M,0.230,N,0.426,K,A*22
69.53829836845398:$GPGGA,192239.00,3938.23101,N,07957.12790,W,1,05,1.76,875.5,M,-33.9,M,,*63
69.60460710525513:$GPGSA,A,3,06,12,20,17,19,,,,,,,,5.15,1.76,4.84*02
69.67134618759155:$GPGSV,3,1,10,04,10,056,34,05,16,205,34,06,58,038,47,09,18,087,31*77
69.70464181900024:$GPGSV,3,2,10,11,63,285,34,12,48,289,30t:
69.70476055145264:3000
69.71748304367065:APRS:start
70.75395917892456:APRS:end
70.78709626197815:,17,27,110,31,19,49,099,44*7F
70.81828141212463:$GPGSV,3,3,10,20,43,204,38,25,20192240.00,V,N*46
71.3918526172638:$GPRMC,192241.00,V,,,,,,,140523,,,N*71
71.39217519760132:$GPVTG,,,,,,,,,N*30
71.45847868919373:$GPGGA,192241.00,,,,,0,00,99.99,,,,,,*6B
71.49193501472473:$GPGSA,A,1,,,,,,,,,,,,,99.99,99.99,99.99*30
71.55860733985901:$GPGSV,4,1,15,01,,,32,02,,,33,04,10,056,28,05,16,205,*73
71.62505578994751:$GPGSV,4,2,15,06,58,038,31,09,18,087,27,11,63,285,34,12,48,289,31*70
71.69151830673218:$GPGSV,4,3,15,17,27,110,26,19,49,099,,20,43,204,26,25,20,315,29*76
71.75827813148499:$GPGSV,4,4,15,46,40,207,33,48,19,244,34,51,36,219,33*44
71.77544975280762:$GPGLL,,,,,192241.00,V,N*47
72.39127469062805:$GPRMC,192242.00,V,,,,,,,140523,,,N*72
72.39160203933716:$GPVTG,,,,,,,,,N*30
72.45793843269348:$GPGGA,192242.00,,,,,0,00,99.99,,,,,,*68
72.49142050743103:$GPGSA,A,1,,,,,,,,,,,,,99.99,99.99,99.99*30
72.55789923667908:$GPGSV,3,1,12,01,,,23,02,,,09,04,10,056,10,05,16,205,25*76
72.62456917762756:$GPGSV,3,2,12,06,58,038,21,09,18,087,23,11,63,285,20,12,48,289,30*71
72.69128155708313:$GPGSV,3,3,12,17,27,110,10,19,49,099,43,20,43,204,37,25,20,315,17*79
72.7199125289917:$GPGLL,,,,,192242.00,V,N*44
73.40040493011475:$GPRMC,192243.00,V,,,,,,,140523,,,N*73
73.40073275566101:$GPVTG,,,,,,,,,N*30
73.46701192855835:$GPGGA,192243.00,,,,,0,04,3.95,,,,,,*52
73.50058102607727:$GPGSA,A,1,06,12,20,19,,,,,,,,,29.60,3.95,29.34*01
73.56706404685974:$GPGSV,3,1,12,01,,,19,02,,,08,04,10,056,09,05,16,205,33*71
73.63377165794373:$GPGSV,3,2,12,06,58,038,47,09,18,087,,11,63,285,,12,48,289,31*73
73.70024871826172:$GPGSV,3,3,12,17,27,110,12,19,49,099,43,20,43,204,38,25,20,315,*72
73.72901439666748:$GPGLL,,,,,192243.00,V,N*45
74.43147301673889:$GPRMC,192244.00,A,3938.23750,N,07957.12950,W,0.116,,140523,,,A*6C
74.46486020088196:$GPVTG,,T,,M,0.116,N,0.215,K,A*23
74.53161263465881:$GPGGA,192244.00,3938.23750,N,07957.12950,W,1,05,1.76,806.7,M,-33.9,M,,*6F
74.59815812110901:$GPGSA,A,3,06,12,20,17,19,,,,,,,,5.15,1.76,4.84*02
74.66464352607727:$GPGSV,3,1,11,01,,,12,04,10,056,11,05,16,205,33,06,58,038,47*49
74.73125410079956:$GPGSV,3,2,11,09,18,087,29,11,63,285,,12,48,289,32,17,27,110,29*73
74.79779195785522:$GPGSV,3,3,11,19,49,099,43,20,43,204,38,25,20,315,*41
74.8249077796936:$GPGLL,3938.23750,N,07957.12950,W,192244.00,A,A*72
75.43591523170471:$GPRMC,192245.00,A,3938.24361,N,07957.12926,W,0.133,,140523,,,A*6A
75.46927165985107:$GPVTG,,T,,M,0.133,N,0.246,K,A*22
75.53623557090759:$GPGGA,192245.00,3938.24361,N,07957.12926,W,1,05,1.76,727.5,M,-33.9,M,,*60
75.60251450538635:$GPGSA,A,3,06,12,20,17,19,,,,,,,,5.15,1.76,4.84*02
75.66912007331848:$GPGSV,3,1,11,01,,,11,04,10,056,12,05,16,205,33,06,58,038,47*49
75.73570013046265:$GPGSV,3,2,11,09,18,087,30,11,63,285,29,12,48,289,31,17,27,110,31*7A
75.80223894119263:$GPGSV,3,3,11,19,49,099,43,20,43,204,38,25,20,315,*41
75.8312919139862:$GPGLL,3938.24361,N,07957.12926,W,192245.00,A,A*73
76.43468999862671:$GPRMC,192246.00,A,3938.24831,N,07957.12916,W,0.118,,140523,,,A*6D
76.46800994873047:$GPVTG,,T,,M,0.118,N,0.219,K,A*21
76.53476929664612:$GPGGA,192246.00,3938.24831,N,07957.12916,W,1,05,1.76,668.5,M,-33.9,M,,*64
76.60129594802856:$GPGSA,A,3,06,12,20,17,19,,,,,,,,5.15,1.76,4.84*02
76.66795349121094:$GPGSV,3,1,11,01,,,12,04,10,056,,05,16,205,33,06,58,038,47*49
76.73460721969604:$GPGSV,3,2,11,09,18,087,30,11,63,285,34,12,48,289,31,17,27,110,31*76
76.80104374885559:$GPGSV,3,3,11,19,49,099,43,20,43,204,38,25,20,315,*41
76.82807230949402:$GPGLL,3938.24831,N,07957.12916,W,192246.00,A,A*7D
77.40257978439331:$GPRMC,192247.00,V,,,,,,,140523,,,N*77
77.40294122695923:$GPVTG,,,,,,,,,N*30
77.46917271614075:$GPGGA,192247.00,,,,,0,05,3.94,,,,,,*56
77.50280594825745:$GPGSA,A,1,06,12,20,17,19,,,,,,,,29.59,3.94,29.33*0B
77.5694432258606:$GPGSV,3,1,11,01,,,12,04,10,056,33,05,16,205,33,06,58,038,47*49
77.66883087158203:$GPGSV,3,2,11,09,18,087,30,11,63,285,34,12,48,289,31,17,27,110,32*75
77.69439888000488:$GPGSV,3,3,11,19,49,099,43,20t:
77.69447612762451:3000
77.69463753700256:APRS:start
78.72683262825012:APRS:end
78.76010608673096:,43,204,38,25,20,315,*41
78.79323315620422:$GPGLL,,,,,192247.00,V,N*41
78.82670021057129:$GPRMC,1,46,40,207,33,48,19,244,36,51,36,219,34*70
78.84829831123352:$GPGLL,,,,,192248.00,V,N*4E
79.38929176330566:$GPRMC,192249.00,V,,,,,,,140523,,,N*79
79.38961887359619:$GPVTG,,,,,,,,,N*30
79.45605087280273:$GPGGA,192249.00,,,,,0,00,99.99,,,,,,*63
79.48931741714478:$GPGSA,A,1,,,,,,,,,,,,,99.99,99.99,99.99*30
79.55586504936218:$GPGSV,4,1,16,01,,,29,02,,,30,04,10,056,29,05,16,205,31*7A
79.62247920036316:$GPGSV,4,2,16,06,58,038,,09,18,087,,11,63,285,27,12,48,289,27*71
79.68897342681885:$GPGSV,4,3,16,17,27,110,34,18,,,30,19,49,099,,20,43,204,*41
79.75578761100769:$GPGSV,4,4,16,25,20,315,32,46,40,207,33,48,19,244,34,51,36,219,34*73
79.77718019485474:$GPGLL,,,,,192249.00,V,N*4F
80.38924956321716:$GPRMC,192250.00,V,,,,,,,140523,,,N*71
80.38954710960388:$GPVTG,,,,,,,,,N*30
80.45590543746948:$GPGGA,192250.00,,,,,0,00,99.99,,,,,,*6B
80.48929047584534:$GPGSA,A,1,,,,,,,,,,,,,99.99,99.99,99.99*30
80.55597972869873:$GPGSV,3,1,11,04,10,056,34,05,16,205,35,06,58,038,12,09,18,087,*75
80.62242436408997:$GPGSV,3,2,11,11,63,285,35,12,48,289,32,17,27,110,,18,,,26*47
80.68903017044067:$GPGSV,3,3,11,19,49,099,23,20,43,204,10,25,20,315,09*44
80.70519185066223:$GPGLL,,,,,192250.00,V,N*47
81.39877915382385:$GPRMC,192251.00,V,,,,,,,140523,,,N*70
81.39916968345642:$GPVTG,,,,,,,,,N*30
81.46528434753418:$GPGGA,192251.00,,,,,0,00,99.99,,,,,,*6A
81.49876856803894:$GPGSA,A,1,,,,,,,,,,,,,99.99,99.99,99.99*30
81.56551957130432:$GPGSV,3,1,11,04,10,056,34,05,16,205,35,06,58,038,19,09,18,087,*7E
81.6320321559906:$GPGSV,3,2,11,11,63,285,35,12,48,289,32,17,27,110,33,18,,,24*45
81.69843697547913:$GPGSV,3,3,11,19,49,099,44,20,43,204,11,25,20,315,*4D
81.71468210220337:$GPGLL,,,,,192251.00,V,N*46
82.40819549560547:$GPRMC,192252.00,V,,,,,,,140523,,,N*73
82.40851759910583:$GPVTG,,,,,,,,,N*30
82.4747667312622:$GPGGA,192252.00,,,,,0,05,3.92,,,,,,*54
82.50820970535278:$GPGSA,A,1,06,12,20,17,19,,,,,,,,29.58,3.92,29.32*0D
82.57511734962463:$GPGSV,3,1,10,04,10,056,34,05,16,205,35,06,58,038,48,09,18,087,*7B
82.67463374137878:$GPGSV,3,2,10,11,63,285,35,12,48,289,33,17,27,110,33,19,49,099,44*7F
82.70813918113708:$GPGSV,3,3,10,20,43,204,37,25,20,315,*7D
82.72429060935974:$GPGLL,,,,,192252.00,V,N*45
83.446604013443:$GPRMC,192253.00,A,3938.25062,N,07957.13095,W,0.098,,140523,,,A*6C
83.48002481460571:$GPVTG,,T,,M,0.098,N,0.181,K,A*2A
83.54662418365479:$GPGGA,192253.00,3938.25062,N,07957.13095,W,1,05,1.76,634.8,M,-33.9,M,,*68
83.61303973197937:$GPGSA,A,3,06,12,20,17,19,,,,,,,,5.15,1.76,4.84*02
83.67975902557373:$GPGSV,3,1,12,03,,,28,04,10,056,33,05,16,205,34,06,58,038,47*46
83.74629282951355:$GPGSV,3,2,12,09,18,087,,11,63,285,34,12,48,289,33,17,27,110,33*76
83.81296610832214:$GPGSV,3,3,12,19,49,099,44,20,43,204,37,23,,,26,25,20,315,*4F
83.84846448898315:$GPGLL,3938.25062,N,07957.13095,W,192253.00,A,A*75
84.43917918205261:$GPRMC,192254.00,A,3938.25348,N,07957.13061,W,0.088,,140523,,,A*6A
84.4724931716919:$GPVTG,,T,,M,0.088,N,0.163,K,A*27
84.53921866416931:$GPGGA,192254.00,3938.25348,N,07957.13061,W,1,05,1.76,601.0,M,-33.9,M,,*61
84.60583329200745:$GPGSA,A,3,06,12,20,17,19,,,,,,,,5.15,1.76,4.84*02
84.67241096496582:$GPGSV,3,1,11,04,10,056,33,05,16,205,37,06,58,038,47,09,18,087,*70
84.73921012878418:$GPGSV,3,2,11,11,63,285,34,12,48,289,33,17,27,110,32,19,49,099,44*7E
84.80563163757324:$GPGSV,3,3,11,20,43,204,37,23,,,24,25,20,315,*7B
84.83257174491882:$GPGLL,3938.25348,N,07957.13061,W,192254.00,A,A*72
85.43688654899597:$GPRMC,192255.00,A,3938.25609,N,07957.13008,W,0.096,,140523,,,A*6B
85.47021126747131:$GPVTG,,T,,M,0.096,N,0.178,K,A*22
85.53670239448547:$GPGGA,192255.00,3938.25609,N,07957.13008,W,1,05,1.76,569.1,M,-33.9,M,,*63
85.60327363014221:$GPGSA,A,3,06,12,20,17,19,,,,,,,,5.15,1.76,4.84*02
85.67016315460205:$GPGSV,3,1,10,04,10,056,33,05,16,205,34,06,58,038,47,09,18,087,*72
85.73694372177124:$GPGSV,3,2,10,11,63,285,34,12,48,289,33,17,27,110,32,19,49,099,44*7F
85.76332950592041:$GPGSV,3,3,10,20t:
85.7634494304657:3000
85.76363325119019:APRS:start
86.79972195625305:APRS:end
86.83296656608582:,43,204,38,25,20,315,*72
87.3919894695282:$GPGLL,3938.25609,N,07957.13008,W,192$GPRMC,192257.00,V,,,,,,,140523,,,N*76
87.39231824874878:$GPVTG,,,,,,,,,N*30
87.45861530303955:$GPGGA,192257.00,,,,,0,00,99.99,,,,,,*6C
87.49212431907654:$GPGSA,A,1,,,,,,,,,,,,,99.99,99.99,99.99*30
87.5586302280426:$GPGSV,5,1,17,01,,,31,02,,,32,03,,,30,04,10,055,37*4A
87.62501502037048:$GPGSV,5,2,17,05,17,205,31,06,58,038,30,07,,,30,09,18,087,*46
87.691650390625:$GPGSV,5,3,17,11,63,285,31,12,48,289,27,17,27,110,33,19,49,099,35*78
87.75844526290894:$GPGSV,5,4,17,20,43,204,26,25,20,315,,46,40,207,31,48,19,244,33*7C
87.79158926010132:$GPGSV,5,5,17,51,36,219,33*44
87.81108522415161:$GPGLL,,,,,192257.00,V,N*40
88.38696360588074:$GPRMC,192258.00,V,,,,,,,140523,,,N*79
88.38767218589783:$GPVTG,,,,,,,,,N*30
88.45352697372437:$GPGGA,192258.00,,,,,0,00,99.99,,,,,,*63
88.48707675933838:$GPGSA,A,1,,,,,,,,,,,,,99.99,99.99,99.99*30
88.55367588996887:$GPGSV,3,1,11,01,,,23,04,10,055,16,05,17,205,23,06,57,038,45*42
88.62039113044739:$GPGSV,3,2,11,09,18,087,,11,63,285,30,12,48,289,31,17,27,110,12*70
88.6867413520813:$GPGSV,3,3,11,19,49,099,42,20,43,204,22,25,20,315,*4B
88.70313692092896:$GPGLL,,,,,192258.00,V,N*4F
89.43249583244324:$GPRMC,192259.00,A,3938.25768,N,07957.12843,W,4.166,59.20,140523,,,A*4D
89.46590447425842:$GPVTG,59.20,T,,M,4.166,N,7.715,K,A*02
89.5327296257019:$GPGGA,192259.00,3938.25768,N,07957.12843,W,1,03,3.06,567.8,M,-33.9,M,,*6B
89.5990936756134:$GPGSA,A,2,06,12,19,,,,,,,,,,3.22,3.06,1.00*09
89.66567850112915:$GPGSV,3,1,11,01,,,18,04,10,055,13,05,17,205,,06,57,038,46*4D
89.73232889175415:$GPGSV,3,2,11,09,18,087,,11,63,285,32,12,48,289,30,17,27,110,09*79
89.79874730110168:$GPGSV,3,3,11,19,49,099,42,20,43,204,18,25,20,315,*42
89.82989478111267:$GPGLL,3938.25768,N,07957.12843,W,192259.00,A,A*70
90.43319320678711:$GPRMC,192300.00,A,3938.25814,N,07957.13083,W,0.199,,140523,,,A*65
90.46648359298706:$GPVTG,,T,,M,0.199,N,0.369,K,A*2E
90.53322410583496:$GPGGA,192300.00,3938.25814,N,07957.13083,W,1,04,3.99,559.5,M,-33.9,M,,*66
90.5996561050415:$GPGSA,A,3,06,12,17,19,,,,,,,,,7.76,3.99,6.66*0A
90.66649055480957:$GPGSV,3,1,11,04,10,055,13,05,17,205,32,06,57,038,47,09,18,087,27*7F
90.73309659957886:$GPGSV,3,2,11,10,,,28,11,63,285,33,12,48,289,32,17,27,110,32*46
90.79947757720947:$GPGSV,3,3,11,19,49,099,43,20,43,204,15,25,20,315,*4E
90.82646298408508:$GPGLL,3938.25814,N,07957.13083,W,192300.00,A,A*7C
91.43837785720825:$GPRMC,192301.00,A,3938.25943,N,07957.13197,W,0.102,,140523,,,A*61
91.47168016433716:$GPVTG,,T,,M,0.102,N,0.189,K,A*20
91.53819870948792:$GPGGA,192301.00,3938.25943,N,07957.13197,W,1,05,3.99,541.8,M,-33.9,M,,*65
91.60471057891846:$GPGSA,A,3,06,12,20,17,19,,,,,,,,7.76,3.99,6.66*08
91.67165279388428:$GPGSV,3,1,10,04,10,055,14,05,17,205,33,06,57,038,46,09,18,087,26*78
91.73843169212341:$GPGSV,3,2,10,11,63,285,33,12,48,289,32,17,27,110,31,19,49,099,43*7D
91.77167344093323:$GPGSV,3,3,10,20,43,204,14,25,20,315,*7C
91.82539701461792:$GPGLL,3938.25943,N,07957.13197,W,192301.00,A,A*7A
92.4301528930664:$GPRMC,192302.00,A,3938.26057,N,07957.13191,W,0.042,,140523,,,A*6E
92.46333384513855:$GPVTG,,T,,M,0.042,N,0.078,K,A*2A
92.53011989593506:$GPGGA,192302.00,3938.26057,N,07957.13191,W,1,05,3.98,526.7,M,-33.9,M,,*60
92.59648776054382:$GPGSA,A,3,06,12,20,17,19,,,,,,,,7.76,3.98,6.66*09
92.6633939743042:$GPGSV,3,1,10,04,10,055,08,05,17,205,33,06,57,038,47,09,18,087,23*71
92.73013710975647:$GPGSV,3,2,10,11,63,285,33,12,48,289,32,17,27,110,31,19,49,099,43*7D
92.76359963417053:$GPGSV,3,3,10,20,43,204,14,25,20,315,*7C
92.81714391708374:$GPGLL,3938.26057,N,07957.13191,W,192302.00,A,A*70
93.43655800819397:$GPRMC,192303.00,A,3938.26187,N,07957.13193,W,0.064,,140523,,,A*65
93.46984553337097:$GPVTG,,T,,M,0.064,N,0.119,K,A*28
93.53646159172058:$GPGGA,192303.00,3938.26187,N,07957.13193,W,1,05,1.76,512.1,M,-33.9,M,,*6C
93.60378193855286:$GPGSA,A,3,06,12,20,17,19,,,,,,,,5.15,1.76,4.84*02
93.60386896133423:$t:
93.6039469242096:3000
93.60409140586853:APRS:start
94.64082074165344:APRS:end
94.70766067504883:GPGSV,3,1,11,04,10,055,08,05,17,205,33,06,57,038,47,09,18,087,*
94.77434968948364:$GPGSV,4,3,15,17,27,110,36,19,49,099,33,20,43,204,30,25,20,315,30*78
94.84084224700928:$GPGSV,4,4,15,46,40,207,33,48,19,244,34,51,36,219,36*41
94.84973430633545:$GPGLL,,,,,192304.00,V,N*47
95.39511728286743:$GPRMC,192305.00,V,,,,,,,140523,,,N*70
95.3954393863678:$GPVTG,,,,,,,,,N*30
95.46172142028809:$GPGGA,192305.00,,,,,0,00,99.99,,,,,,*6A
95.49532675743103:$GPGSA,A,1,,,,,,,,,,,,,99.99,99.99,99.99*30
95.56187438964844:$GPGSV,4,1,16,04,10,055,23,05,17,205,,06,57,038,31,09,18,087,29*72
95.6280517578125:$GPGSV,4,2,16,10,,,30,11,64,286,22,12,48,289,35,13,,,31*7E
95.69473767280579:$GPGSV,4,3,16,15,,,31,17,27,110,32,19,49,099,,20,43,204,26*4F
95.76163005828857:$GPGSV,4,4,16,25,20,315,,46,40,207,32,48,19,244,33,51,36,219,33*73
95.78510093688965:$GPGLL,,,,,192305.00,V,N*46
96.39582705497742:$GPRMC,192306.00,V,,,,,,,140523,,,N*73
96.3961238861084:$GPVTG,,,,,,,,,N*30
96.46224021911621:$GPGGA,192306.00,,,,,0,00,99.99,,,,,,*69
96.49588704109192:$GPGSA,A,1,,,,,,,,,,,,,99.99,99.99,99.99*30
96.56264781951904:$GPGSV,4,1,13,04,10,055,15,05,17,205,12,06,57,038,21,09,18,087,17*7D
96.62920713424683:$GPGSV,4,2,13,10,,,19,11,64,286,19,12,48,289,21,13,,,22*7F
96.6955668926239:$GPGSV,4,3,13,15,,,22,17,27,110,24,19,49,099,25,20,43,204,16*4B
96.72903537750244:$GPGSV,4,4,13,25,20,315,*49
96.74957132339478:$GPGLL,,,,,192306.00,V,N*45
97.4064588546753:$GPRMC,192307.00,V,,,,,,,140523,,,N*72
97.40678429603577:$GPVTG,,,,,,,,,N*30
97.47320628166199:$GPGGA,192307.00,,,,,0,00,99.99,,,,,,*68
97.5067949295044:$GPGSA,A,1,,,,,,,,,,,,,99.99,99.99,99.99*30
97.57347416877747:$GPGSV,3,1,12,04,10,055,20,05,17,205,28,06,57,038,18,09,18,087,14*7D
97.63993453979492:$GPGSV,3,2,12,10,,,15,11,64,286,15,12,48,289,18,15,,,18*7C
97.706547498703:$GPGSV,3,3,12,17,27,110,20,19,49,099,35,20,43,204,29,25,20,315,*72
97.73307633399963:$GPGLL,,,,,192307.00,V,N*44
98.39925599098206:$GPRMC,192308.00,V,,,,,,,140523,,,N*7D
98.39957761764526:$GPVTG,,,,,,,,,N*30
98.46580791473389:$GPGGA,192308.00,,,,,0,00,99.99,,,,,,*67
98.4993200302124:$GPGSA,A,1,,,,,,,,,,,,,99.99,99.99,99.99*30
98.56591939926147:$GPGSV,3,1,11,04,10,055,24,05,17,205,28,06,57,038,15,09,18,087,13*70
98.6327760219574:$GPGSV,3,2,11,11,64,286,14,12,48,289,15,17,27,110,,19,49,099,37*79
98.69909501075745:$GPGSV,3,3,11,20,43,204,28,21,,,29,25,20,315,20*78
98.71746110916138:$GPGLL,,,,,192308.00,V,N*4B
99.39506649971008:$GPRMC,192309.00,V,,,,,,,140523,,,N*7C
99.39539170265198:$GPVTG,,,,,,,,,N*30
99.46151876449585:$GPGGA,192309.00,,,,,0,00,99.99,,,,,,*66
99.49503469467163:$GPGSA,A,1,,,,,,,,,,,,,99.99,99.99,99.99*30
99.5617470741272:$GPGSV,3,1,10,04,10,055,31,05,17,205,35,06,57,038,11,09,18,087,13*7D
99.62831234931946:$GPGSV,3,2,10,11,64,286,14,12,48,289,13,17,27,111,26,19,49,099,43*78
99.69455814361572:$GPGSV,3,3,10,20,43,204,36,25,20,315,18*75
99.70657253265381:$GPGLL,,,,,192309.00,V,N*4A
100.43326377868652:$GPRMC,192310.00,A,3938.26199,N,07957.13108,W,0.499,,140523,,,A*6C
100.46678423881531:$GPVTG,,T,,M,0.499,N,0.924,K,A*28
100.53360486030579:$GPGGA,192310.00,3938.26199,N,07957.13108,W,1,03,5.66,501.6,M,-33.9,M,,*65
100.60001587867737:$GPGSA,A,2,20,17,19,,,,,,,,,,5.74,5.66,1.00*0D
100.66665267944336:$GPGSV,3,1,10,04,10,055,31,05,17,205,34,06,57,038,40,09,18,087,*7A
100.73329329490662:$GPGSV,3,2,10,11,64,286,14,12,48,289,13,17,27,111,29,19,49,099,43*77
100.76667809486389:$GPGSV,3,3,10,20,43,204,36,25,20,315,14*79
100.81618690490723:$GPGLL,3938.26199,N,07957.13108,W,192310.00,A,A*70
101.39285659790039:$GPRMC,192311.00,V,,,,,,,140523,,,N*75
101.39308428764343:$GPVTG,,,,,,,,,N*30
101.45933890342712:$GPGGA,192311.00,,,,,0,00,99.99,,,,,,*6F
101.49292969703674:$GPGSA,A,1,,,,,,,,,,,,,99.99,99.99,99.99*30
101.55968642234802:$GPGSV,3,1,11,04,10,055,26,05,17,205,25,06,57,038,09,09,18,087,*70
101.62636041641235:$GPGSV,3,2,11,11,64,286,15,12,48,289,14,17,27,111,22,19,49,100,37*79
101.69254231452942:$GPGSV,3,3,11,20,43,204,30,23,,,24,25,20,315,*7C
101.70875144004822:$GPGLL,,,,,192311.00,V,N*43
102.36766409873962:$GPRMC,192312.t:
102.36777210235596:3000
102.37432789802551:APRS:start
103.41097211837769:APRS:end
103.44443869590759:00,A,3938.26194,N,07957.13203,W,0.281,,140523,,,A*64
103.47764778137207:$GPVTG,,T,,N*30
103.51120710372925:$GPGGA,192313.00,,,,,0,00,99.99,,,,,,*6D
103.57746410369873:$GPGSA,A,1,,,,,,,,,,,,,99.99,99.99,99.99*30
103.64388847351074:$GPGSV,5,1,18,04,10,055,,05,17,205,,06,57,038,21,09,18,087,25*71
103.71042108535767:$GPGSV,5,2,18,11,64,286,26,12,48,289,14,15,,,29,17,27,111,31*4B
103.77698612213135:$GPGSV,5,3,18,18,,,25,19,49,100,25,20,43,204,19,22,,,30*73
103.8435709476471:$GPGSV,5,4,18,23,,,29,24,-2,244,31,25,20,315,,46,40,207,33*53
103.87723231315613:$GPGSV,5,5,18,48,19,244,34,51,36,219,34*7D
103.89539456367493:$GPGLL,,,,,192313.00,V,N*41
104.39149928092957:$GPRMC,192314.00,V,,,,,,,140523,,,N*70
104.39174842834473:$GPVTG,,,,,,,,,N*30
104.45836877822876:$GPGGA,192314.00,,,,,0,00,99.99,,,,,,*6A
104.49184942245483:$GPGSA,A,1,,,,,,,,,,,,,99.99,99.99,99.99*30
104.55839347839355:$GPGSV,5,1,20,04,10,055,,05,17,205,,06,57,038,21,09,18,087,*7D
104.62500143051147:$GPGSV,5,2,20,11,64,286,28,12,48,289,28,15,,,28,17,27,111,30*41
104.69151616096497:$GPGSV,5,3,20,18,,,27,19,49,100,23,20,43,204,24,22,,,29*7A
104.7582757472992:$GPGSV,5,4,20,23,,,28,24,-2,244,29,25,20,315,21,26,,,30*67
104.8246808052063:$GPGSV,5,5,20,27,,,28,46,40,207,28,48,19,244,32,51,36,219,31*43
104.83886694908142:$GPGLL,,,,,192314.00,V,N*46
105.39564108848572:$GPRMC,192315.00,V,,,,,,,140523,,,N*71
105.3959653377533:$GPVTG,,,,,,,,,N*30
105.46224308013916:$GPGGA,192315.00,,,,,0,00,99.99,,,,,,*6B
105.49573278427124:$GPGSA,A,1,,,,,,,,,,,,,99.99,99.99,99.99*30
105.56235814094543:$GPGSV,5,1,17,04,10,055,22,05,17,205,34,06,57,038,22,09,18,087,20*7F
105.62887501716614:$GPGSV,5,2,17,11,64,286,17,12,48,289,35,15,,,12,17,27,111,22*4F
105.69532251358032:$GPGSV,5,3,17,18,,,11,19,49,100,20,20,43,204,20,22,,,16*70
105.76214623451233:$GPGSV,5,4,17,23,,,25,24,,,18,25,20,315,,26,,,19*49
105.79522061347961:$GPGSV,5,5,17,27,,,11*7A
105.80104088783264:$GPGLL,,,,,192315.00,V,N*47
106.4016273021698:$GPRMC,192316.00,V,,,,,,,140523,,,N*72
106.40195560455322:$GPVTG,,,,,,,,,N*30
106.4682514667511:$GPGGA,192316.00,,,,,0,04,3.85,,,,,,*52
106.50176119804382:$GPGSA,A,1,06,12,20,19,,,,,,,,,29.51,3.85,29.25*02
106.56840872764587:$GPGSV,4,1,14,04,10,055,,05,17,205,33,06,57,038,47,09,18,087,27*7E
106.66808533668518:$GPGSV,4,2,14,11,64,286,15,12,48,289,35,17,27,111,19,19,49,100,43*73
106.70149493217468:$GPGSV,4,3,14,20,43,204,37,22,,,14,24,,,16,25,21,315,*7B
106.73508024215698:$GPGSV,4,4,14,26,,,17,27,,,09*72
106.76798343658447:$GPGLL,,,,,192316.00,V,N*44
107.4056646823883:$GPRMC,192317.00,V,,,,,,,140523,,,N*73
107.40598726272583:$GPVTG,,,,,,,,,N*30
107.4722547531128:$GPGGA,192317.00,,,,,0,04,3.85,,,,,,*53
107.50582122802734:$GPGSA,A,1,06,12,20,19,,,,,,,,,29.50,3.85,29.25*03
107.57253527641296:$GPGSV,3,1,12,04,10,055,,05,17,205,33,06,57,038,46,09,18,087,25*7C
107.67208218574524:$GPGSV,3,2,12,11,64,286,33,12,48,289,35,17,27,111,16,19,49,100,43*79
107.70539450645447:$GPGSV,3,3,12,20,43,204,39,25,21,315,,26,,,15,27,,,11*75
107.73639345169067:$GPGLL,,,,,192317.00,V,N*45
108.4020688533783:$GPRMC,192318.00,V,,,,,,,140523,,,N*7C
108.40239357948303:$GPVTG,,,,,,,,,N*30
108.46883964538574:$GPGGA,192318.00,,,,,0,04,3.85,,,,,,*5C
108.50239562988281:$GPGSA,A,1,06,12,20,19,,,,,,,,,29.50,3.85,29.25*03
108.56890892982483:$GPGSV,3,1,11,04,10,055,29,05,17,205,33,06,57,038,47,09,18,087,23*73
108.66856598854065:$GPGSV,3,2,11,11,64,286,34,12,48,289,35,17,27,111,15,19,49,100,43*7E
108.70212745666504:$GPGSV,3,3,11,20,43,204,39,25,21,315,,26,,,15*73
108.72668313980103:$GPGLL,,,,,192318.00,V,N*4A
109.4030864238739:$GPRMC,192319.00,V,,,,,,,140523,,,N*7D
109.40341329574585:$GPVTG,,,,,,,,,N*30
109.46969699859619:$GPGGA,192319.00,,,,,0,04,3.84,,,,,,*5C
109.50328660011292:$GPGSA,A,1,06,12,20,19,,,,,,,,,29.50,3.84,29.24*03
109.56996560096741:$GPGSV,3,1,11,04,10,055,29,05,17,205,30,06,57,038,46,09,18,087,22*70
109.66947650909424:$GPGSV,3,2,11,11,64,286,33,12,48,289,34,15,,,26,17,27,111,26*4B
109.70283508300781:$GPGSV,3,3,11,19,49,100,43,20,43,204,39,25,21,315,*40
109.72750568389893:$GPGLL,,,,,192319.00,V,N*4B
110.39523506164551:$GPRMC,192320.00,A,3938.26530,N,079t:
110.39534401893616:3000
110.39550566673279:APRS:start
111.42976021766663:APRS:end
111.46309852600098:57.13362,W,0.083,,140523,,,A*69
111.52955555915833:$GPVTG,,T,,M,0.083,N,0.153,K,A1.00,,,,,0,00,99.99,,,,,,*6C
111.5630521774292:$GPGSA,A,1,,,,,,,,,,,,,99.99,99.99,99.99*30
111.62937617301941:$GPGSV,4,1,16,04,10,055,,05,17,205,25,06,57,038,,09,18,087,30*7E
111.69599103927612:$GPGSV,4,2,16,11,64,286,,12,48,289,,17,27,111,23,19,49,100,*7D
111.76262283325195:$GPGSV,4,3,16,20,43,204,,25,21,315,29,26,,,29,30,,,31*7C
111.82916283607483:$GPGSV,4,4,16,32,,,27,46,40,207,32,48,19,244,33,51,36,219,30*46
111.84665775299072:$GPGLL,,,,,192321.00,V,N*40
112.38616251945496:$GPRMC,192322.00,V,,,,,,,140523,,,N*75
112.38645625114441:$GPVTG,,,,,,,,,N*30
112.45294976234436:$GPGGA,192322.00,,,,,0,00,99.99,,,,,,*6F
112.48633408546448:$GPGSA,A,1,,,,,,,,,,,,,99.99,99.99,99.99*30
112.55302929878235:$GPGSV,4,1,16,04,10,055,28,05,17,205,,06,57,038,,09,18,087,29*7B
112.61961030960083:$GPGSV,4,2,16,11,64,286,24,12,48,289,21,17,27,111,,19,49,100,*79
112.68602538108826:$GPGSV,4,3,16,20,43,204,,25,21,315,,26,,,28,30,,,25*73
112.75280475616455:$GPGSV,4,4,16,32,,,26,46,40,207,31,48,19,244,31,51,36,219,31*47
112.77013778686523:$GPGLL,,,,,192322.00,V,N*43
113.39124250411987:$GPRMC,192323.00,V,,,,,,,140523,,,N*74
113.39153480529785:$GPVTG,,,,,,,,,N*30
113.45793581008911:$GPGGA,192323.00,,,,,0,00,99.99,,,,,,*6E
113.4914345741272:$GPGSA,A,1,,,,,,,,,,,,,99.99,99.99,99.99*30
113.55797719955444:$GPGSV,4,1,14,02,,,19,04,10,055,18,05,17,205,35,06,57,038,46*40
113.62466192245483:$GPGSV,4,2,14,09,18,087,,11,64,286,,12,48,289,35,17,27,111,*73
113.69097232818604:$GPGSV,4,3,14,19,49,100,,20,43,204,22,25,21,315,25,26,,,16*4B
113.7242980003357:$GPGSV,4,4,14,30,,,24,32,,,11*78
113.74688196182251:$GPGLL,,,,,192323.00,V,N*42
114.42737627029419:$GPRMC,192324.00,A,3938.26585,N,07957.13418,W,0.150,,140523,,,A*66
114.46071982383728:$GPVTG,,T,,M,0.150,N,0.278,K,A*2A
114.52733516693115:$GPGGA,192324.00,3938.26585,N,07957.13418,W,1,03,2.03,488.8,M,-33.9,M,,*65
114.59396648406982:$GPGSA,A,2,06,12,20,,,,,,,,,,2.26,2.03,1.00*02
114.66061305999756:$GPGSV,3,1,11,04,10,055,22,05,17,205,35,06,57,038,47,09,18,087,*7F
114.72717690467834:$GPGSV,3,2,11,11,64,286,,12,48,289,34,17,27,111,,19,49,100,*7B
114.7609326839447:$GPGSV,3,3,11,20,43,204,39,25,21,315,26,26,,,15*77
114.81222152709961:$GPGLL,3938.26585,N,07957.13418,W,192324.00,A,A*7A
115.40038418769836:$GPRMC,192325.00,V,,,,,,,140523,,,N*72
115.40056204795837:$GPVTG,,,,,,,,,N*30
115.46720862388611:$GPGGA,192325.00,,,,,0,04,3.83,,,,,,*54
115.50054240226746:$GPGSA,A,1,06,12,20,19,,,,,,,,,29.47,3.83,29.22*04
115.56715369224548:$GPGSV,3,1,12,02,,,25,04,10,055,26,05,17,205,35,06,57,038,47*42
115.63378763198853:$GPGSV,3,2,12,09,18,087,,11,64,286,,12,48,289,34,17,27,111,*73
115.70030379295349:$GPGSV,3,3,12,19,49,100,44,20,43,204,38,25,21,315,26,26,,,14*40
115.72914981842041:$GPGLL,,,,,192325.00,V,N*44
116.39884400367737:$GPRMC,192326.00,V,,,,,,,140523,,,N*71
116.3992087841034:$GPVTG,,,,,,,,,N*30
116.46538996696472:$GPGGA,192326.00,,,,,0,04,3.82,,,,,,*56
116.49907112121582:$GPGSA,A,1,06,12,20,19,,,,,,,,,29.47,3.82,29.22*05
116.5656065940857:$GPGSV,3,1,10,04,10,055,31,05,17,205,35,06,57,038,47,09,18,087,*7C
116.66517043113708:$GPGSV,3,2,10,11,64,286,34,12,48,289,34,17,27,111,,19,49,100,43*7A
116.69861030578613:$GPGSV,3,3,10,20,43,204,38,25,21,315,26*77
116.71280932426453:$GPGLL,,,,,192326.00,V,N*47
117.39962887763977:$GPRMC,192327.00,V,,,,,,,140523,,,N*70
117.3999502658844:$GPVTG,,,,,,,,,N*30
117.46624684333801:$GPGGA,192327.00,,,,,0,04,3.82,,,,,,*57
117.4997022151947:$GPGSA,A,1,06,12,20,19,,,,,,,,,29.46,3.82,29.22*04
117.56645274162292:$GPGSV,3,1,10,04,10,055,23,05,17,205,34,06,57,038,46,09,18,087,*7F
117.66601419448853:$GPGSV,3,2,10,11,64,286,34,12,48,289,33,17,27,111,,19,49,100,43*7D
117.69948625564575:$GPGSV,3,3,10,20,43,204,38,25,21,315,26*77
117.71343350410461:$GPGLL,,,,,192327.00,V,N*46
118.39579153060913:$GPRMC,192328.00,V,,,,,,,140523,,,N*7F
118.39612030982971:$GPVTG,,,,,,,,,N*30
118.46241855621338:$GPGGA,192328.00,,,,,0,04,3.82,,,,,,*58
118.49579524993896:$GPGSA,A,1,06,12,20,19,,,,,,,,,29.46,3.82,29.21*07
118.52915620803833:$GPGSV,3,1,10,04,10,055,23,t:
118.52925443649292:3000
118.54326605796814:APRS:start
119.57541990280151:APRS:end
119.60885977745056:05,17,205,33,06,57,038,46,09,18,087,*78
119.70848846435547:$GPGSV,3,2,10,11,64,28GPGSV,4,2,14,09,18,087,32,11,64,286,34,12,48,289,32,17,27,111,*72
119.77505731582642:$GPGSV,4,3,14,19,49,100,31,20,43,204,,25,21,315,32,46,40,207,34*78
119.80840229988098:$GPGSV,4,4,14,48,19,244,35,51,36,219,34*70
119.83719515800476:$GPGLL,,,,,192329.00,V,N*48
120.39486312866211:$GPRMC,192330.00,V,,,,,,,140523,,,N*76
120.39517045021057:$GPVTG,,,,,,,,,N*30
120.4615752696991:$GPGGA,192330.00,,,,,0,00,99.99,,,,,,*6C
120.49504828453064:$GPGSA,A,1,,,,,,,,,,,,,99.99,99.99,99.99*30
120.56170797348022:$GPGSV,4,1,14,02,,,28,04,10,055,25,05,17,205,35,06,57,038,28*44
120.62839484214783:$GPGSV,4,2,14,09,18,087,,11,64,286,26,12,48,289,29,17,27,111,34*7D
120.69486689567566:$GPGSV,4,3,14,19,49,100,28,20,43,204,,25,21,315,34,33,11,107,29*7F
120.761554479599:$GPGSV,4,4,14,46,40,207,31,51,36,219,31*74
120.77029991149902:$GPGLL,,,,,192330.00,V,N*40
121.43057036399841:$GPRMC,192331.00,A,3938.26577,N,07957.13541,W,0.488,,140523,,,A*62
121.46389746665955:$GPVTG,,T,,M,0.488,N,0.903,K,A*2D
